ID,State,County,Region,BaySegment,Name,SubName,OtherName,cpntLongitude,cpntLatitude,YatesBar,AREA_AC,AREA_SQM,NOAACode,NOAAName,SiteType,DzKeyBar,SpatKeyBar,ReportRegion
BARBA0,MD,SO,BIG ANNEMESSEX RIVER,BIGMH,BIG ANNEMESSEX,,,-75.838512,38.055882,Y,1220.25,4938195,005,BIG ANNEMESSEX RIVER,,,,BIG ANNEMESSEX RIVER
BARBA1,MD,SO,BIG ANNEMESSEX RIVER,BIGMH,BIG ANNEMESSEX ADD 1,ADDITION 1,,-75.852561,38.044582,,391.48,1584249,005,BIG ANNEMESSEX RIVER,,,,BIG ANNEMESSEX RIVER
BARCC0,MD,SO,BIG ANNEMESSEX RIVER,BIGMH,CRANE COVE,,,-75.806269,38.060092,,114.2,462153,005,BIG ANNEMESSEX RIVER,,,,BIG ANNEMESSEX RIVER
BARCO0,MD,SO,BIG ANNEMESSEX RIVER,BIGMH,COLBURN,,,-75.792625,38.060626,,93.86,379836,005,BIG ANNEMESSEX RIVER,,,,BIG ANNEMESSEX RIVER
BARDC0,MD,SO,BIG ANNEMESSEX RIVER,BIGMH,DAUGHERTY CREEK,,,-75.844643,38.031465,,179.43,726143,005,BIG ANNEMESSEX RIVER,,,,BIG ANNEMESSEX RIVER
BARFW0,MD,SO,BIG ANNEMESSEX RIVER,BIGMH,FORDS WHARF,,,-75.836087,38.066634,,385.96,1561933,005,BIG ANNEMESSEX RIVER,,,,BIG ANNEMESSEX RIVER
BARJC0,MD,SO,BIG ANNEMESSEX RIVER,BIGMH,JONES CREEK,,,-75.833849,38.034766,,183.49,742566,005,BIG ANNEMESSEX RIVER,,,,BIG ANNEMESSEX RIVER
BARJI0,MD,SO,BIG ANNEMESSEX RIVER,BIGMH,JACKSON ISLAND,,,-75.829624,38.046295,,652.04,2638723,005,BIG ANNEMESSEX RIVER,,,,BIG ANNEMESSEX RIVER
BARMB0,MD,SO,BIG ANNEMESSEX RIVER,BIGMH,MOON BAY,,,-75.79723,38.068398,,118.97,481446,005,BIG ANNEMESSEX RIVER,,,,BIG ANNEMESSEX RIVER
BARMG0,MD,SO,BIG ANNEMESSEX RIVER,BIGMH,MIDDLEGROUND,,,-75.807078,38.053759,,70.25,284294,005,BIG ANNEMESSEX RIVER,,,,BIG ANNEMESSEX RIVER
BARMI0,MD,SO,BIG ANNEMESSEX RIVER,BIGMH,MILES,,,-75.782437,38.064897,,37.4,151354,005,BIG ANNEMESSEX RIVER,,,,BIG ANNEMESSEX RIVER
BARNR0,MD,SO,BIG ANNEMESSEX RIVER,BIGMH,NICHOL'S MINI REEF,,,-75.796112,38.055555,,0.0012,,005,BIG ANNEMESSEX RIVER,Sanctuary,,,BIG ANNEMESSEX RIVER
BARRC0,MD,SO,BIG ANNEMESSEX RIVER,BIGMH,RED CAP CREEK,,,-75.773807,38.07536,,109.4,442729,005,BIG ANNEMESSEX RIVER,,,,BIG ANNEMESSEX RIVER
BARSP0,MD,SO,BIG ANNEMESSEX RIVER,BIGMH,SHARK POINT,,,-75.856237,38.060967,,249.11,1008108,005,BIG ANNEMESSEX RIVER,,,,BIG ANNEMESSEX RIVER
BARTP0,MD,SO,BIG ANNEMESSEX RIVER,BIGMH,TENTH POINT,,,-75.850653,38.038326,,191.78,776107,005,BIG ANNEMESSEX RIVER,,,,BIG ANNEMESSEX RIVER
BRCBM0,MD,TA,BROAD CREEK,CHOMH1,BROAD CREEK MIDDLEGROUND,,MIDDLEGROUND,-76.235943,38.7414,Y,193.45,782852,537,BROAD CREEK (CHOPTANK RIVER TRIBUTARY),,,,BROAD CREEK
BRCBP0,MD,TA,BROAD CREEK,CHOMH1,BRUSHY POINT,,,-76.259843,38.752403,Y,15,60690,537,BROAD CREEK (CHOPTANK RIVER TRIBUTARY),,,,BROAD CREEK
BRCBR0,MD,TA,BROAD CREEK,CHOMH1,BROWN,,PEANUT,-76.262183,38.725575,Y,215.65,872720,537,BROAD CREEK (CHOPTANK RIVER TRIBUTARY),,,,BROAD CREEK
BRCCO0,MD,TA,BROAD CREEK,CHOMH1,COOPERS POINT,,,-76.270561,38.742644,Y,34.14,138174,537,BROAD CREEK (CHOPTANK RIVER TRIBUTARY),,,,BROAD CREEK
BRCCP0,MD,TA,BROAD CREEK,CHOMH1,CEDAR POINT,,EDGE CREEK,-76.223594,38.741964,Y,140.3,567762,537,BROAD CREEK (CHOPTANK RIVER TRIBUTARY),,,,BROAD CREEK
BRCDN0,MD,TA,BROAD CREEK,CHOMH1,DEEP NECK,,"ICE HOUSE,PINEY POINT",-76.247963,38.733933,Y,512.23,2072902,537,BROAD CREEK (CHOPTANK RIVER TRIBUTARY),,Yes,Yes,BROAD CREEK
BRCDP0,MD,TA,BROAD CREEK,CHOMH1,DRUM POINT,,,-76.222839,38.74346,Y,200.67,812081,537,BROAD CREEK (CHOPTANK RIVER TRIBUTARY),,,,BROAD CREEK
BRCFO0,MD,TA,BROAD CREEK,CHOMH1,FOX,,"BACK CREEK,SAN DOMINGO CREEK",-76.226925,38.767436,Y,10.25,41471,537,BROAD CREEK (CHOPTANK RIVER TRIBUTARY),,,,BROAD CREEK
BRCGB0,MD,TA,BROAD CREEK,CHOMH1,GREAT BAR,,"GRAPE BAR,GRAPEVINE",-76.251236,38.714307,Y,495.63,2005733,537,BROAD CREEK (CHOPTANK RIVER TRIBUTARY),,,,BROAD CREEK
BRCHA0,MD,TA,BROAD CREEK,CHOMH1,HARRISON,,,-76.258154,38.778957,Y,4.06,16428,537,BROAD CREEK (CHOPTANK RIVER TRIBUTARY),,,,BROAD CREEK
BRCHP0,MD,TA,BROAD CREEK,CHOMH1,HOLLAND POINT,,,-76.253526,38.769683,Y,122.83,497074,537,BROAD CREEK (CHOPTANK RIVER TRIBUTARY),,,,BROAD CREEK
BRCHR0,MD,TA,BROAD CREEK,CHOMH1,HUGHES MINI REEF,,,-76.2208,38.750883,,0.0012,,537,BROAD CREEK (CHOPTANK RIVER TRIBUTARY),Sanctuary,,,BROAD CREEK
BRCIA0,MD,TA,BROAD CREEK,CHOMH1,IRISH CREEK ADDITION,ADDITION,,-76.227844,38.682852,,68.85,278637,137,CHOPTANK RIVER BELOW CASTLEHAVEN,,,,BROAD CREEK
BRCIC0,MD,TA,BROAD CREEK,CHOMH1,IRISH CREEK,,HORSE SHOE,-76.221766,38.680139,Y,734.88,2973953,137,CHOPTANK RIVER BELOW CASTLEHAVEN,,,,BROAD CREEK
BRCIC1,MD,TA,BROAD CREEK,CHOMH1,IRISH CREEK ADD 1,ADDITION 1,,-76.225205,38.667972,,136.62,552895,137,CHOPTANK RIVER BELOW CASTLEHAVEN,,,,BROAD CREEK
BRCJH0,MD,TA,BROAD CREEK,CHOMH1,JOE HARRIS FLATS,,,-76.213293,38.734845,Y,74.77,302573,537,BROAD CREEK (CHOPTANK RIVER TRIBUTARY),,,,BROAD CREEK
BRCJP0,MD,TA,BROAD CREEK,CHOMH1,JUDYS POINT,,LEADENHAM CREEK,-76.278505,38.742405,Y,15.39,62285,537,BROAD CREEK (CHOPTANK RIVER TRIBUTARY),,,,BROAD CREEK
BRCLP0,MD,TA,BROAD CREEK,CHOMH1,LONG POINT WOODS,,"LONG POINT,RIVER BAR,LONG POINT WOODS",-76.260011,38.705936,Y,305.6,1236708,137,CHOPTANK RIVER BELOW CASTLEHAVEN,,,,BROAD CREEK
BRCMP0,MD,TA,BROAD CREEK,CHOMH1,MULBERRY POINT,,,-76.249447,38.745213,Y,129.67,524750,537,BROAD CREEK (CHOPTANK RIVER TRIBUTARY),,,,BROAD CREEK
BRCPC0,MD,TA,BROAD CREEK,CHOMH1,PIN CUSHION,,,-76.204794,38.735883,Y,40,161863,537,BROAD CREEK (CHOPTANK RIVER TRIBUTARY),,,,BROAD CREEK
BRCPO0,MD,TA,BROAD CREEK,CHOMH1,POMPES,,,-76.262989,38.745189,Y,17.36,70259,537,BROAD CREEK (CHOPTANK RIVER TRIBUTARY),,,,BROAD CREEK
BRCRO0,MD,TA,BROAD CREEK,CHOMH1,ROYSTON,,"ROSENS,ROSS ISLAND,ROSSIN ISLAND",-76.245194,38.685425,Y,1311.9,5309064,137,CHOPTANK RIVER BELOW CASTLEHAVEN,,Yes,Yes,BROAD CREEK
BRCSI0,MD,TA,BROAD CREEK,CHOMH1,SIMMONS,,,-76.266667,38.740304,,1.2,4865,537,BROAD CREEK (CHOPTANK RIVER TRIBUTARY),,,,BROAD CREEK
BRCUR0,MD,TA,BROAD CREEK,CHOMH1,UPPER ROLLS CREEK,,,-76.258048,38.782478,,1.2,4862,537,BROAD CREEK (CHOPTANK RIVER TRIBUTARY),,,,BROAD CREEK
BRCWF0,MD,TA,BROAD CREEK,CHOMH1,WILLEYS ISLAND FLATS,,,-76.23813,38.755693,Y,295.26,1194858,537,BROAD CREEK (CHOPTANK RIVER TRIBUTARY),,,,BROAD CREEK
BRCWI0,MD,TA,BROAD CREEK,CHOMH1,WILLEYS ISLAND,,LONG BAR,-76.227254,38.754516,Y,81.49,329764,537,BROAD CREEK (CHOPTANK RIVER TRIBUTARY),,,,BROAD CREEK
BRCWP0,MD,TA,BROAD CREEK,CHOMH1,WELL POINT,,"BIG POINT,GRACES CREEK,HURDLE HILL",-76.258747,38.746458,Y,30.84,124793,537,BROAD CREEK (CHOPTANK RIVER TRIBUTARY),,,,BROAD CREEK
BRCYR0,MD,TA,BROAD CREEK,CHOMH1,YOUNG'S MINI REEF,,,-76.229833,38.769933,,0.0012,,537,BROAD CREEK (CHOPTANK RIVER TRIBUTARY),,,,BROAD CREEK
DOSDR0,MD,DO,DORCHESTER SHORE,CB4MH,DOMINION REEF AT THE GOOSES,,,-76.4154,38.5576,,7.32321,29636.1,027,CHESAPEAKE BAY NORTH OF COVE POINT TO AREA 127,,,,LOWER BAY EAST
DOSJP0,MD,DO,DORCHESTER SHORE,CB4MH,JAMES POINT,,"JAMES ISLAND,JAMES SHORE",-76.373994,38.54269,Y,1233.17,4990452,027,CHESAPEAKE BAY NORTH OF COVE POINT TO AREA 127,,,,LOWER BAY EAST
DOSND0,MD,DO,DORCHESTER SHORE,CB5MH,NEW DISCOVERY,,,-76.2775,38.300966,Y,177.43,718039,129,CHESAPEAKE BAY SOUTH OF COVE POINT AND EAST OF SHIP CHANNEL,,,,LOWER BAY EAST
DOSPI0,MD,DO,DORCHESTER SHORE,CB4MH,PUNCH ISLAND CREEK,,PUNCH ISLAND OUTSIDE/OFF,-76.316053,38.421383,Y,1781.04,7207607,027,CHESAPEAKE BAY NORTH OF COVE POINT TO AREA 127,,,,LOWER BAY EAST
DOSSP0,MD,DO,DORCHESTER SHORE,CB5MH,STONE PILE,,,-76.28023,38.341188,Y,86.33,349353,129,CHESAPEAKE BAY SOUTH OF COVE POINT AND EAST OF SHIP CHANNEL,,,,LOWER BAY EAST
DOSTR0,MD,DO,DORCHESTER SHORE,CB4MH,TRAVERS,,,-76.361444,38.491416,Y,248.35,1005041,027,CHESAPEAKE BAY NORTH OF COVE POINT TO AREA 127,,,,LOWER BAY EAST
EBNBE0,MD,QA,EASTERN BAY NORTH,EASMH,BALD EAGLE,,STONE CREEK,-76.23549,38.899655,Y,277.9,1124637,039,EASTERN BAY,,,,EASTERN BAY
EBNBE1,MD,QA,EASTERN BAY NORTH,EASMH,BALD EAGLE ADD 1,ADDITION 1,,-76.238908,38.889945,,89.33,361509,039,EASTERN BAY,,,,EASTERN BAY
EBNBE2,MD,QA,EASTERN BAY NORTH,EASMH,BALD EAGLE ADD 2,ADDITION 2,,-76.248292,38.897957,,635.77,2572870,039,EASTERN BAY,,,,EASTERN BAY
EBNBE3,MD,QA,EASTERN BAY NORTH,EASMH,BALD EAGLE ADD 3,ADDITION 3,,-76.237945,38.911667,,148.6,601353,039,EASTERN BAY,,,,EASTERN BAY
EBNBG0,MD,QA,EASTERN BAY NORTH,EASMH,BUGBY,,"BUSBY STONEPILE,STANLEY REEF",-76.221222,38.882164,Y,1112.9,4503736,039,EASTERN BAY,,Yes,,EASTERN BAY
EBNBH0,MD,QA,EASTERN BAY NORTH,EASMH,BUNKER HILL,,,-76.329572,38.885112,Y,31.12,125947,039,EASTERN BAY,,,,EASTERN BAY
EBNBI0,MD,QA,EASTERN BAY NORTH,EASMH,BIBBY,,,-76.2529,38.931435,Y,100.12,405156,039,EASTERN BAY,,,,EASTERN BAY
EBNBN0,MD,QA,EASTERN BAY NORTH,EASMH,BATTS NECK,,PHILBERTS,-76.318465,38.903939,Y,299.39,1211582,039,EASTERN BAY,,,,EASTERN BAY
EBNBO0,MD,QA,EASTERN BAY NORTH,EASMH,BODKIN ISLAND,,BODKIN ROCK,-76.275698,38.905097,Y,130.48,528030,039,EASTERN BAY,,,,EASTERN BAY
EBNBR0,MD,QA,EASTERN BAY NORTH,EASMH,BRICK HOUSE HILL,,WILDGROUND,-76.321394,38.883458,Y,34.61,140069,039,EASTERN BAY,,,,EASTERN BAY
EBNBS0,MD,QA,EASTERN BAY NORTH,EASMH,BODKIN SHOALS,,"BODKIN SANDS,BODKIN SHELL PLANT,CENTERFIELD,LONG MARSH,MIDDLE BLOCK",-76.297398,38.879849,Y,1631.72,6603346,039,EASTERN BAY,,,,EASTERN BAY
EBNBS1,MD,QA,EASTERN BAY NORTH,EASMH,BODKIN SHOALS ADD 1,ADDITION 1,BODKIN SHOALS WATER,-76.280143,38.886137,,226.75,917609,039,EASTERN BAY,,,,EASTERN BAY
EBNBU0,MD,QA,EASTERN BAY NORTH,EASMH,BUCKHORN,,,-76.24987,38.96476,Y,40.71,164762,039,EASTERN BAY,,,,EASTERN BAY
EBNCA0,MD,QA,EASTERN BAY NORTH,EASMH,CRAB ALLEY LUMPS,,"BRIGHTS,CRAB ALLEY CREEK,INSIDE ROCK,LITTLE ISLAND,LUMPS,TURKEY POINT",-76.273167,38.925542,Y,397.88,1610168,039,EASTERN BAY,,,,EASTERN BAY
EBNCC0,MD,QA,EASTERN BAY NORTH,EASMH,CABIN CREEK,,,-76.221486,38.935351,Y,511.21,2068777,039,EASTERN BAY,,,,EASTERN BAY
EBNCI0,MD,QA,EASTERN BAY NORTH,EASMH,CEDAR ISLAND,,LITTLE ISLAND,-76.288533,38.920772,Y,427.82,1731341,039,EASTERN BAY,,,,EASTERN BAY
EBNCN0,MD,QA,EASTERN BAY NORTH,EASMH,COX NECK,,,-76.286597,38.908805,Y,405.19,1639735,039,EASTERN BAY,,,,EASTERN BAY
EBNCO0,MD,,EASTERN BAY NORTH,EASMH,COOVER MINI REEF,,,-76.28595,38.944417,,0.0012,,039,EASTERN BAY,,,,EASTERN BAY
EBNDO0,MD,QA,EASTERN BAY NORTH,EASMH,DOMINION,,,-76.24982,38.936072,Y,217.92,881906,039,EASTERN BAY,,,,EASTERN BAY
EBNES0,MD,QA,EASTERN BAY NORTH,EASMH,ERICKSON SANDS,,ERICKSON SANDS,-76.310444,38.912817,Y,128.94,521790,039,EASTERN BAY,,,,EASTERN BAY
EBNGC0,MD,QA,EASTERN BAY NORTH,EASMH,GREEVES COVE,,,-76.339013,38.910519,Y,52.26,211495,039,EASTERN BAY,,,,EASTERN BAY
EBNGW0,MD,QA,EASTERN BAY NORTH,EASMH,GREENWOOD CREEK,,"CORNFIELD POINT,GREENERS CREEK,GREENS CREEK,GREENWICH CREEK",-76.20265,38.888061,Y,8.09,32747,039,EASTERN BAY,,,,EASTERN BAY
EBNHB0,MD,,EASTERN BAY NORTH,EASMH,HORSEHEAD BREAKWATER,,,-76.220889,38.94549,,0.25,,039,EASTERN BAY,Sanctuary,,,EASTERN BAY
EBNHI0,MD,QA,EASTERN BAY NORTH,EASMH,HOG ISLAND,,"HOG BAY HILL,HOG ISLAND MUDS",-76.247375,38.959035,Y,62.25,251931,039,EASTERN BAY,,,,EASTERN BAY
EBNHN0,MD,QA,EASTERN BAY NORTH,EASMH,HOLLICUTTS NOOSE,,,-76.348435,38.84756,,862.49,3490356,039,EASTERN BAY,,Yes,Yes,EASTERN BAY
EBNHO0,MD,QA,EASTERN BAY NORTH,EASMH,HOOD,,"HOOD POINT,HOODS BAR",-76.232239,38.929539,Y,574.71,2325773,039,EASTERN BAY,,,,EASTERN BAY
EBNHR0,MD,,EASTERN BAY NORTH,EASMH,HORSEHEAD REEF BALLS,,,-76.220889,38.94549,,,,039,EASTERN BAY,Sanctuary,,,EASTERN BAY
EBNIC0,MD,QA,EASTERN BAY NORTH,EASMH,ISLAND COVE,,WAREHOUSE CREEK,-76.322407,38.944564,Y,85.56,346265,039,EASTERN BAY,,,,EASTERN BAY
EBNJH0,MD,QA,EASTERN BAY NORTH,EASMH,JONES HOLE,,"CLARK BAR,OLD POINT",-76.314267,38.928873,Y,72.93,295124,039,EASTERN BAY,,,,EASTERN BAY
EBNJI0,MD,QA,EASTERN BAY NORTH,EASMH,JOHNSON ISLAND,,"BIG ISLAND,BIG ISLAND NARROWS",-76.278611,38.928979,Y,127.56,516227,039,EASTERN BAY,,,,EASTERN BAY
EBNLP0,MD,QA,EASTERN BAY NORTH,EASMH,LONG POINT,,"ROMANCOKE,SECOND KENT",-76.325462,38.867177,Y,249.47,1009559,039,EASTERN BAY,,,,EASTERN BAY
EBNMA0,MD,QA,EASTERN BAY NORTH,EASMH,MATTAPEX,,,-76.331189,38.911995,Y,124.2,502626,039,EASTERN BAY,,,,EASTERN BAY
EBNMB0,MD,QA,EASTERN BAY NORTH,EASMH,MIDDLE BLOCK,,FIRST ROCK,-76.30409,38.893863,Y,189.85,768303,039,EASTERN BAY,,,,EASTERN BAY
EBNMH0,MD,QA,EASTERN BAY NORTH,EASMH,MILL HILL,,"RED BANKS,YELLOW BANKS",-76.218038,38.901616,Y,355.95,1440460,039,EASTERN BAY,,,,EASTERN BAY
EBNNF0,MD,QA,EASTERN BAY NORTH,EASMH,NORMANS FINE EYES,,,-76.267037,38.911529,Y,350.43,1418138,039,EASTERN BAY,,,,EASTERN BAY
EBNNM0,MD,QA,EASTERN BAY NORTH,EASMH,NORMANS MARSH,,,-76.244037,38.92575,Y,202.29,818637,039,EASTERN BAY,,,,EASTERN BAY
EBNNM1,MD,QA,EASTERN BAY NORTH,EASMH,NORMANS MARSH ADD 1,ADDITION 1,,-76.242786,38.917985,,83.98,339848,039,EASTERN BAY,,,,EASTERN BAY
EBNPC0,MD,,EASTERN BAY NORTH,EASMH,PEAKE'S MINI REEF,,,-76.309367,38.93305,,0.0012,,039,EASTERN BAY,Sanctuary,,,EASTERN BAY
EBNPH0,MD,QA,EASTERN BAY NORTH,EASMH,PEA HILL,,,-76.308527,38.919515,Y,116.52,471560,039,EASTERN BAY,,,,EASTERN BAY
EBNPI0,MD,QA,EASTERN BAY NORTH,EASMH,PARSONS ISLAND,,,-76.262796,38.901805,Y,338.82,1371142,039,EASTERN BAY,,Yes,Yes,EASTERN BAY
EBNPM0,MD,QA,EASTERN BAY NORTH,EASMH,POND MARSH,,,-76.314209,38.937463,Y,149.93,606763,039,EASTERN BAY,,,,EASTERN BAY
EBNPN0,MD,QA,EASTERN BAY NORTH,EASMH,PARSONS ISLAND NARROWS,,,-76.24558,38.917231,Y,162.15,656209,039,EASTERN BAY,,,,EASTERN BAY
EBNPN1,MD,QA,EASTERN BAY NORTH,EASMH,PARSONS ISLAND NARROWS ADD 1,ADDITION 1,,-76.254733,38.91639,,132.8,537427,039,EASTERN BAY,,,,EASTERN BAY
EBNPP0,MD,QA,EASTERN BAY NORTH,EASMH,PROSPECT POINT,,,-76.205308,38.882811,Y,29.15,117966,039,EASTERN BAY,,,,EASTERN BAY
EBNPR0,MD,QA,EASTERN BAY NORTH,EASMH,PROSPECT,,,-76.240894,38.946455,Y,115.72,468300,039,EASTERN BAY,,,,EASTERN BAY
EBNPT0,MD,QA,EASTERN BAY NORTH,EASMH,PINE TREE,,,-76.332321,38.895422,Y,9.37,37915,039,EASTERN BAY,,,,EASTERN BAY
EBNRM0,MD,QA,EASTERN BAY NORTH,EASMH,RINGOLD MIDDLEGROUND,,RINGOLD,-76.309139,38.904139,Y,241.44,977072,039,EASTERN BAY,,,,EASTERN BAY
EBNRN0,MD,TA,EASTERN BAY NORTH,EASMH,RICH NECK,,"BLACK BUOY,BUOY ROCK",-76.287687,38.864462,Y,161.5,653561,039,EASTERN BAY,,,,EASTERN BAY
EBNRO0,MD,QA,EASTERN BAY NORTH,EASMH,ROOKS,,,-76.309565,38.94406,Y,112.58,455605,039,EASTERN BAY,,,,EASTERN BAY
EBNSC0,MD,QA,EASTERN BAY NORTH,EASMH,SHIPPING CREEK,,,-76.330647,38.9051,Y,108.52,439146,039,EASTERN BAY,,,,EASTERN BAY
EBNSM0,MD,QA,EASTERN BAY NORTH,EASMH,SAW MILL CREEK,,"COLLIERS ROCK,COLLYER ROCK",-76.218527,38.915168,Y,927.61,3753902,039,EASTERN BAY,,,,EASTERN BAY
EBNSP0,MD,QA,EASTERN BAY NORTH,EASMH,SANDY POINT,,"GOODMANS CREEK,KIRWAN CREEK,GOOD HANDS CREEK",-76.255084,38.96028,Y,87.11,352529,039,EASTERN BAY,,,,EASTERN BAY
EBNST0,MD,QA,EASTERN BAY NORTH,EASMH,STEVENS,,STEVENSON SHORE,-76.316535,38.923038,Y,66.61,269580,039,EASTERN BAY,,,,EASTERN BAY
EBNTH0,MD,QA,EASTERN BAY NORTH,EASMH,THOMPSONS,,,-76.312111,38.953498,Y,124.37,503313,039,EASTERN BAY,,,,EASTERN BAY
EBNTP0,MD,QA,EASTERN BAY NORTH,EASMH,TURKEY POINT,,"BIKEN BAR,BIKEN MUD,INSIDE ROCK",-76.292458,38.894756,Y,301.61,1220578,039,EASTERN BAY,,,,EASTERN BAY
EBNWC0,MD,QA,EASTERN BAY NORTH,EASMH,WELL COVE,,,-76.242467,38.962004,Y,148.7,601782,039,EASTERN BAY,,,,EASTERN BAY
EBNWG0,MD,QA,EASTERN BAY NORTH,EASMH,WILD GROUND,,,-76.317697,38.893282,Y,532.23,2153847,039,EASTERN BAY,,,Yes,EASTERN BAY
EBNWW0,MD,QA,EASTERN BAY NORTH,EASMH,WALTER WHITE,,,-76.246897,38.948544,Y,264.79,1071562,039,EASTERN BAY,,,,EASTERN BAY
EBSFB0,MD,TA,EASTERN BAY SOUTH,EASMH,FERRY BASIN,,,-76.275832,38.855474,,176.85,715692,039,EASTERN BAY,,,,EASTERN BAY
EBSLP0,MD,TA,EASTERN BAY SOUTH,EASMH,LOWS POINT,,LOWES POINT,-76.334443,38.796573,Y,915.08,3703188,027,CHESAPEAKE BAY NORTH OF COVE POINT TO AREA 127,,,,EASTERN BAY
EBSMD0,MD,TA,EASTERN BAY SOUTH,EASMH,MARYS DELIGHT,,COOPERS HOLLOW,-76.320736,38.820428,Y,137.93,558168,027,CHESAPEAKE BAY NORTH OF COVE POINT TO AREA 127,,,,EASTERN BAY
EBSSM0,MD,TA,EASTERN BAY SOUTH,EASMH,SEDGE MARSH,,,-76.293315,38.849414,Y,62.15,251513,039,EASTERN BAY,,,,EASTERN BAY
EBSTP0,MD,TA,EASTERN BAY SOUTH,EASMH,TILGHMANS POINT,,"BUOY,PEAR TREE",-76.263562,38.867975,Y,264.83,1071717,039,EASTERN BAY,,,,EASTERN BAY
EBSUH0,MD,TA,EASTERN BAY SOUTH,EASMH,UPPER HILL,,,-76.253203,38.866396,Y,16.93,68511,039,EASTERN BAY,,,,EASTERN BAY
EBSWP0,MD,TA,EASTERN BAY SOUTH,EASMH,WADES POINT,,CLAIBORNE,-76.30759,38.841258,Y,280.46,1134983,039,EASTERN BAY,,,,EASTERN BAY
ECBPO0,MD,DO,EAST CHES B. - S. OF COVE PT,,PONS POINT,,,,,,,,127,,,,,
FIBBH0,MD,DO,FISHING BAY,FSBMH,BISHOPS HEAD,,,-76.033061,38.229867,,390.61,1580763,043,FISHING BAY,,,,FISHING BAY
FIBBU0,MD,DO,FISHING BAY,FSBMH,BUNGAY,,,-76.010141,38.28706,Y,369.32,1494591,043,FISHING BAY,,,,FISHING BAY
FIBBU1,MD,DO,FISHING BAY,FSBMH,BUNGAY ADD 1,ADDITION 1,,-76.000842,38.288019,,959.25,3881953,043,FISHING BAY,,,,FISHING BAY
FIBCI0,MD,DO,FISHING BAY,FSBMH,CLAY ISLAND,,"BIRTH BAR,CLAY POINT",-75.98215,38.234647,Y,396,1602536,043,FISHING BAY,,,Yes,FISHING BAY
FIBCI1,MD,DO,FISHING BAY,FSBMH,CLAY ISLAND ADD 1,ADDITION 1,,-75.96861,38.240969,,682.72,2762853,043,FISHING BAY,,,,FISHING BAY
FIBDI0,MD,DO,FISHING BAY,FSBMH,DUCK ISLAND,,,-75.998811,38.270333,Y,281.47,1139056,043,FISHING BAY,,,,FISHING BAY
FIBDI1,MD,DO,FISHING BAY,FSBMH,DUCK ISLAND ADD 1,ADDITION 1,,-76.007818,38.267439,,411.73,1666218,043,FISHING BAY,,,,FISHING BAY
FIBEV0,MD,DO,FISHING BAY,FSBMH,EVANS,,"BILL HILL,EVANS SHOAL,GREAT SHOAL",-76.007764,38.252072,Y,1000.37,4048352,043,FISHING BAY,,,,FISHING BAY
FIBEV1,MD,DO,FISHING BAY,FSBMH,EVANS ADD 1,ADDITION 1,,-75.983904,38.258091,,1192.35,4825266,043,FISHING BAY,,,,FISHING BAY
FIBFC0,MD,DO,FISHING BAY,FSBMH,FARM CREEK,,,-76.041144,38.304378,,808.06,3270098,043,FISHING BAY,,,,FISHING BAY
FIBFR0,MD,DO,FISHING BAY,FSBMH,FLAT ROCK,,POINT NO POINT,-76.008111,38.327008,Y,184.3,745847,043,FISHING BAY,,,,FISHING BAY
FIBGC0,MD,DO,FISHING BAY,FSBMH,GOOSE CREEK,,,-76.020799,38.26729,Y,756.77,3062547,043,FISHING BAY,,Yes,Yes,FISHING BAY
FIBGC1,MD,DO,FISHING BAY,FSBMH,GOOSE CREEK ADD 1,ADDITION 1,,-76.031971,38.271013,,47.62,192694,043,FISHING BAY,,,,FISHING BAY
FIBGC2,MD,DO,FISHING BAY,FSBMH,GOOSE CREEK ADD 2,ADDITION 2,,-76.018551,38.281027,,328.2,1328191,043,FISHING BAY,,,,FISHING BAY
FIBHI0,MD,DO,FISHING BAY,FSBMH,HILL,,HILL ROCK,-76.024694,38.315588,Y,75.14,304089,043,FISHING BAY,,,,FISHING BAY
FIBHI1,MD,DO,FISHING BAY,FSBMH,HILL ADD 1,ADDITION 1,,-76.023799,38.313511,,188.65,763433,043,FISHING BAY,,,,FISHING BAY
FIBHW0,MD,DO,FISHING BAY,FSBMH,HALF WAY MARK,,"CHANNEL HILL,CHANNEL ROCK,PATCHES",-76.013177,38.320694,Y,101.21,409569,043,FISHING BAY,,,,FISHING BAY
FIBOH0,MD,DO,FISHING BAY,FSBMH,OLD HOUSE,,OLD HOUSE ROCK,-76.029439,38.298965,Y,130.9,529735,043,FISHING BAY,,,,FISHING BAY
FIBOH1,MD,DO,FISHING BAY,FSBMH,OLD HOUSE ADD 1,ADDITION 1,,-76.022766,38.300599,,488.82,1978202,043,FISHING BAY,,,,FISHING BAY
FIBPO0,MD,DO,FISHING BAY,FSBMH,POINT,,POINT ROCK,-76.022025,38.310832,Y,10.21,41311,043,FISHING BAY,,,,FISHING BAY
FIBRE0,MD,DO,FISHING BAY,FSBMH,ROASTING EAR POINT,,,-76.023085,38.287351,,181.91,736178,043,FISHING BAY,,,,FISHING BAY
FIBSS0,MD,DO,FISHING BAY,FSBMH,SAND SHOAL,,,-76.011036,38.235237,Y,738.11,2987026,043,FISHING BAY,,,,FISHING BAY
FIBSS1,MD,DO,FISHING BAY,FSBMH,SAND SHOAL ADD 1,ADDITION 1,,-75.994293,38.235455,,236.72,957986,043,FISHING BAY,,,,FISHING BAY
FIBTC0,MD,DO,FISHING BAY,FSBMH,TEDIOUS CREEK,,,-76.033072,38.254054,,681.89,2759501,043,FISHING BAY,,,,FISHING BAY
FIBTH0,MD,DO,FISHING BAY,FSBMH,THOROUGH,,HARD GROUND,-76.034711,38.318878,Y,137.69,557210,043,FISHING BAY,,,,FISHING BAY
FIBTH1,MD,DO,FISHING BAY,FSBMH,THOROUGH ADD 1,ADDITION 1,,-76.036888,38.321679,,50.63,204884,043,FISHING BAY,,,,FISHING BAY
FIBWS0,MD,DO,FISHING BAY,FSBMH,WARE SANDS,,WARE POINT,-76.022791,38.225222,Y,344.09,1392497,043,FISHING BAY,,,,FISHING BAY
FIBWS1,MD,DO,FISHING BAY,FSBMH,WARE SANDS ADD 1,ADDITION 1,,-76.020692,38.233582,,885.71,3584355,043,FISHING BAY,,,,FISHING BAY
HACCH0,MD,TA,HARRIS CREEK,CHOMH1,CHANGE,,"CHAINS,NELSON ISLAND",-76.306622,38.719136,Y,262.4,1061912,437,HARRIS CREEK,,,,HARRIS CREEK
HACEP0,MD,TA,HARRIS CREEK,CHOMH1,EAGLE POINT,,"BALD EAGLE,LOMAX,MITCHELL,MITCHELL BAR",-76.30749,38.731062,Y,154.25,624242,437,HARRIS CREEK,,,Yes,HARRIS CREEK
HACGM0,MD,TA,HARRIS CREEK,CHOMH1,GREAT MARSH,,"MUDDY COVE,RIVER BAR,RIVER MUDS",-76.278733,38.705505,Y,339.06,1372113,137,CHOPTANK RIVER BELOW CASTLEHAVEN,,,,HARRIS CREEK
HACHU0,MD,TA,HARRIS CREEK,CHOMH1,HUNTS,,"DOLLY LUMPS,DOLLYS,GIBSON GIRL,HANDKERCHIEF,HUNTS SHOAL,POCKET",-76.311618,38.74118,Y,160.15,648094,437,HARRIS CREEK,,,,HARRIS CREEK
HACLN0,MD,TA,HARRIS CREEK,CHOMH1,LITTLE NECK,,YELLOW BANK,-76.29643,38.767958,Y,41.42,167620,437,HARRIS CREEK,,,,HARRIS CREEK
HACLO0,MD,TA,HARRIS CREEK,CHOMH1,LODGES,,"LODGERS GROUND,WRIGHTS POINT,WRIGHTSONS POINT",-76.309102,38.755684,Y,152.56,617402,437,HARRIS CREEK,,,,HARRIS CREEK
HACMP0,MD,TA,HARRIS CREEK,CHOMH1,MILL POINT,,MILL BAR,-76.302902,38.741008,Y,213.67,864682,437,HARRIS CREEK,,,Yes,HARRIS CREEK
HACRI0,MD,TA,HARRIS CREEK,CHOMH1,RABBIT ISLAND,,POND POINT,-76.28825,38.772086,Y,49.74,201287,437,HARRIS CREEK,,,,HARRIS CREEK
HACSM0,MD,TA,HARRIS CREEK,CHOMH1,SMITH POINT,,BRIARY POINT,-76.304229,38.767654,Y,89.13,360698,437,HARRIS CREEK,,,,HARRIS CREEK
HACSP0,MD,TA,HARRIS CREEK,CHOMH1,SETHS POINT,,"ICE HOUSE,INDIAN POINT,SETCH BAR,SETHS CHOP,SETHS HOLLOW,SETHS BAR",-76.30657,38.74885,Y,93.75,379411,437,HARRIS CREEK,,,,HARRIS CREEK
HACTN0,MD,TA,HARRIS CREEK,CHOMH1,TURKEY NECK,,"MITCHELL GROUND,TURKEY NECK HILL,TURKEY POINT",-76.302394,38.731717,Y,84.37,341443,437,HARRIS CREEK,,,,HARRIS CREEK
HACTU0,MD,TA,HARRIS CREEK,CHOMH1,TURNROW,,,-76.298527,38.709164,Y,181.48,734423,437,HARRIS CREEK,,,,HARRIS CREEK
HACTW0,MD,TA,HARRIS CREEK,CHOMH1,TILGHMAN WHARF,,"DEVILS ISLAND,FLATS,MIDDLE GROUND,PIG PEN,STRAW STACK",-76.321632,38.705571,Y,759.37,3073069,437,HARRIS CREEK,,Yes,Yes,HARRIS CREEK
HACUH0,MD,TA,HARRIS CREEK,CHOMH1,UPPER HARRIS CREEK,,"BARN COVE,CATTLE BRANCH,COW POINT,CRAB HILL,RIP RAP",-76.271721,38.782817,Y,188.94,764608,437,HARRIS CREEK,,,,HARRIS CREEK
HACWA0,MD,TA,HARRIS CREEK,CHOMH1,WALNUT,,"BEECHLEYS COVE,HARRIS BAR,WALNUT TREE",-76.306722,38.760229,Y,215.65,872699,437,HARRIS CREEK,,,,HARRIS CREEK
HACWC0,MD,TA,HARRIS CREEK,CHOMH1,WILD CHERRY TREE,,CHERRY TREE,-76.307778,38.702744,Y,516.71,2091043,437,HARRIS CREEK,,,,HARRIS CREEK
HLSAI0,MD,DO,HOLLAND STRAITS,TANMH,ADAM ISLAND,,,-76.076846,38.147638,,863.02,3492503,292,TANGIER SOUND NORTH OF WENONA,,,,LOWER BAY EAST
HLSCH0,MD,DO,HOLLAND STRAITS,TANMH,CINDER HILL,,HOLLAND STRAITS,-76.079972,38.093401,Y,206.6,836068,192,TANGIER SOUND SOUTH OF WENONA,,,,LOWER BAY EAST
HLSDB0,MD,SO,HOLLAND STRAITS,TANMH,DEEP BANK,,,-76.026726,38.135821,,896.78,3629150,192,TANGIER SOUND SOUTH OF WENONA,,,,LOWER BAY EAST
HLSHE0,MD,DO,HOLLAND STRAITS,TANMH,HOLLAND STRAITS EAST,,"PRY COVE,PRY ISLAND",-76.066747,38.109889,,1033.52,4182488,192,TANGIER SOUND SOUTH OF WENONA,,,,LOWER BAY EAST
HLSHI0,MD,DO,HOLLAND STRAITS,TANMH,HOLLAND ISLAND,,,-76.08453,38.121733,,642.47,2599998,192,TANGIER SOUND SOUTH OF WENONA,,,,LOWER BAY EAST
HLSHS0,MD,SO,HOLLAND STRAITS,TANMH,HOLLAND STRAITS,,,-76.018568,38.148795,,473.51,1916245,292,TANGIER SOUND NORTH OF WENONA,,Yes,,LOWER BAY EAST
HLSHW0,MD,DO,HOLLAND STRAITS,TANMH,HOLLAND STRAITS WEST,,HOLLAND STRAITS,-76.075835,38.117405,Y,458.61,1855931,192,TANGIER SOUND SOUTH OF WENONA,,,,LOWER BAY EAST
HLSJP0,MD,SO,HOLLAND STRAITS,TANMH,JOHNSON POINT,,,-76.044455,38.119935,,431.83,1747565,192,TANGIER SOUND SOUTH OF WENONA,,,,LOWER BAY EAST
HLSNI0,MD,DO,HOLLAND STRAITS,TANMH,NORTHEAST ISLAND,,,-76.065084,38.15521,,993.9,4022170,292,TANGIER SOUND NORTH OF WENONA,,,,LOWER BAY EAST
HLSPC0,MD,SO,HOLLAND STRAITS,TANMH,PRY COVE,,,-76.048128,38.100512,,672.04,2719635,192,TANGIER SOUND SOUTH OF WENONA,,,,LOWER BAY EAST
HLSSE0,MD,DO,HOLLAND STRAITS,TANMH,SPRING ISLAND EAST,,,-76.052472,38.123335,,765.11,3096304,192,TANGIER SOUND SOUTH OF WENONA,,,,LOWER BAY EAST
HLSSN0,MD,DO,HOLLAND STRAITS,TANMH,SPRING ISLAND NORTH,,SPRING ISLAND,-76.04852,38.141091,,784.09,3173116,292,TANGIER SOUND NORTH OF WENONA,,,,LOWER BAY EAST
HLSSW0,MD,DO,HOLLAND STRAITS,TANMH,SPRING ISLAND WEST,,"PRY COVE,PRY ISLAND",-76.069171,38.130749,,260.74,1055187,192,TANGIER SOUND SOUTH OF WENONA,,,,LOWER BAY EAST
HORBC0,MD,DO,HONGA RIVER,HNGMH,BACK COVE,,,-76.210822,38.314177,,708.6,2867614,047,HONGA RIVER,,,,HONGA RIVER
HORBE0,MD,DO,HONGA RIVER,HNGMH,BENTLEY,,,-76.16356,38.293996,,183.07,740850,047,HONGA RIVER,,,,HONGA RIVER
HORCC0,MD,DO,HONGA RIVER,HNGMH,CHARLES CREEK,,,-76.177317,38.341936,,513.06,2076290,047,HONGA RIVER,,,,HONGA RIVER
HORCP0,MD,DO,HONGA RIVER,HNGMH,CRAB POINT,,,-76.126427,38.266272,Y,36.41,147358,047,HONGA RIVER,,,,HONGA RIVER
HORCP1,MD,DO,HONGA RIVER,HNGMH,CRAB POINT ADD 1,ADDITION 1,,-76.127744,38.264222,,350.93,1420178,047,HONGA RIVER,,,,HONGA RIVER
HORDC0,MD,DO,HONGA RIVER,HNGMH,DUCK POINT COVE,,,-76.092656,38.2715,,639.36,2587395,047,HONGA RIVER,,,,HONGA RIVER
HORDP0,MD,DO,HONGA RIVER,HNGMH,DARK POINT,,UPPER BENTLEYS,-76.169113,38.303247,Y,896.07,3626268,047,HONGA RIVER,,,,HONGA RIVER
HORDP1,MD,DO,HONGA RIVER,HNGMH,DARK POINT ADD 1,ADDITION 1,,-76.182074,38.303249,,335.11,1356158,047,HONGA RIVER,,,,HONGA RIVER
HORDP2,MD,DO,HONGA RIVER,HNGMH,DARK POINT ADD 2,ADDITION 2,,-76.174249,38.3163,,446.9,1808553,047,HONGA RIVER,,,,HONGA RIVER
HORFC0,MD,DO,HONGA RIVER,HNGMH,FERRY COVE,,,-76.195285,38.301135,,389.59,1576614,047,HONGA RIVER,,,,HONGA RIVER
HORFX0,MD,DO,HONGA RIVER,HNGMH,FOX CREEK,,,-76.118735,38.294341,,709.42,2870918,047,HONGA RIVER,,,,HONGA RIVER
HORGC0,MD,DO,HONGA RIVER,HNGMH,GUNNERS COVE,,,-76.207479,38.332086,,236.5,957062,047,HONGA RIVER,,,,HONGA RIVER
HORGI0,MD,DO,HONGA RIVER,HNGMH,GUNNERS ISLAND,,,-76.214036,38.343861,,373.9,1513113,047,HONGA RIVER,,,,HONGA RIVER
HORGU0,MD,DO,HONGA RIVER,HNGMH,GUM,,,-76.19298,38.343833,Y,499.94,2023188,047,HONGA RIVER,,,,HONGA RIVER
HORHC0,MD,DO,HONGA RIVER,HNGMH,HOG COVE,,,-76.166189,38.279776,,322.61,1305569,047,HONGA RIVER,,,,HONGA RIVER
HORHI0,MD,DO,HONGA RIVER,HNGMH,HICKORY,,"BRADS COVE,HICKORY POINT,HICKORY ROCK",-76.16585,38.269986,Y,140.32,567847,047,HONGA RIVER,,,,HONGA RIVER
HORLC0,MD,DO,HONGA RIVER,HNGMH,LAKES COVE,,"KALES COVE,OLD TOWN HUDDLES,CEDAR POINT",-76.153055,38.291322,Y,384.65,1556624,047,HONGA RIVER,,,,HONGA RIVER
HORLC1,MD,DO,HONGA RIVER,HNGMH,LAKES COVE ADD 1,ADDITION 1,,-76.147325,38.291611,,197.89,800837,047,HONGA RIVER,,,,HONGA RIVER
HORLC2,MD,DO,HONGA RIVER,HNGMH,LAKES COVE ADD 2,ADDITION 2,,-76.148835,38.303802,,345.84,1399571,047,HONGA RIVER,,,,HONGA RIVER
HORLP0,MD,DO,HONGA RIVER,HNGMH,LONG POINT,,,-76.115078,38.276948,,886.63,3588060,047,HONGA RIVER,,,,HONGA RIVER
HORLT0,MD,DO,HONGA RIVER,HNGMH,LOWER THOROUGHFARE,,"HOUSE SHOALS,THOROFARE,THOROFARE SHOALS,THOROUGHFARE ROCK",-76.155625,38.257769,Y,171.13,692531,047,HONGA RIVER,,,,HONGA RIVER
HORLT1,MD,DO,HONGA RIVER,HNGMH,LOWER THOROUGHFARE ADD 1,ADDITION 1,,-76.15507,38.252992,,339.94,1375683,047,HONGA RIVER,,,,HONGA RIVER
HORLT2,MD,DO,HONGA RIVER,HNGMH,LOWER THOROUGHFARE ADD 2,ADDITION 2,,-76.156822,38.262303,,223.62,904976,047,HONGA RIVER,,,,HONGA RIVER
HORNO0,MD,DO,HONGA RIVER,HNGMH,NORMAN,,"HOOPER ISLAND SANDS,JIMSON WEED",-76.121886,38.249022,Y,1078.18,4363222,047,HONGA RIVER,,,,HONGA RIVER
HORNO1,MD,DO,HONGA RIVER,HNGMH,NORMAN ADD 1,ADDITION 1,,-76.132561,38.251642,,383.29,1551106,047,HONGA RIVER,,Yes,Yes,HONGA RIVER
HORNO2,MD,DO,HONGA RIVER,HNGMH,NORMAN ADD 2,ADDITION 2,,-76.108805,38.256426,,511.9,2071588,047,HONGA RIVER,,,,HONGA RIVER
HORPA0,MD,DO,HONGA RIVER,HNGMH,PAUL,,,-76.137908,38.270586,Y,44.94,181876,047,HONGA RIVER,,,,HONGA RIVER
HORPA2,MD,DO,HONGA RIVER,HNGMH,PAUL ADD 2,ADDITION 2,,-76.144444,38.26758,,323.97,1311075,047,HONGA RIVER,,,,HONGA RIVER
HORPE0,MD,DO,HONGA RIVER,HNGMH,PEANUT,,,-76.195911,38.353078,Y,235.36,952454,047,HONGA RIVER,,,,HONGA RIVER
HORSP0,MD,DO,HONGA RIVER,HNGMH,SMOKE POINT,,,-76.191319,38.299167,Y,35.75,144684,047,HONGA RIVER,,,,HONGA RIVER
HORTD0,MD,DO,HONGA RIVER,HNGMH,TUBBMANS DRAIN,,,-76.213378,38.351942,Y,523.14,2117080,047,HONGA RIVER,,,,HONGA RIVER
HORTP0,MD,DO,HONGA RIVER,HNGMH,TAYLOR POINT,,,-76.132003,38.273582,,372.88,1508979,047,HONGA RIVER,,,,HONGA RIVER
HORWC0,MD,DO,HONGA RIVER,HNGMH,WALLACE CREEK,,,-76.205422,38.361049,,817.32,3307568,047,HONGA RIVER,,,,HONGA RIVER
HORWG0,MD,DO,HONGA RIVER,HNGMH,WINGATE,,,-76.107577,38.283663,,372.26,1506502,047,HONGA RIVER,,,,HONGA RIVER
HORWI0,MD,DO,HONGA RIVER,HNGMH,WINDMILL,,,-76.158969,38.272216,Y,523.85,2119937,047,HONGA RIVER,,,Yes,HONGA RIVER
HORWI1,MD,DO,HONGA RIVER,HNGMH,WINDMILL ADD 1,ADDITION 1,,-76.15221,38.276845,,85.92,347709,047,HONGA RIVER,,,,HONGA RIVER
HORWR0,MD,DO,HONGA RIVER,HNGMH,WROTEN ISLAND,,UPPER WROTEN,-76.205351,38.320013,Y,711.54,2879483,047,HONGA RIVER,,,,HONGA RIVER
HORWR1,MD,DO,HONGA RIVER,HNGMH,WROTEN ISLAND ADD 1,ADDITION 1,,-76.191729,38.332733,,239.73,970154,047,HONGA RIVER,,,,HONGA RIVER
HPSAP0,MD,DO,HOOPER STRAITS,TANMH,APPLEGARTH,,STRAITS ROCK,-76.098808,38.225761,Y,721.41,2919433,047,HONGA RIVER,,,,LOWER BAY EAST
HPSAP1,MD,DO,HOOPER STRAITS,TANMH,APPLEGARTH ADD 1,ADDITION 1,,-76.084875,38.217495,,541.6,2191763,047,HONGA RIVER,,,,LOWER BAY EAST
HPSBB0,MD,DO,HOOPER STRAITS,HNGMH,BLACK BEACON,,,-76.109681,38.236278,,216.46,875984,047,HONGA RIVER,,,,LOWER BAY EAST
HPSBH0,MD,DO,HOOPER STRAITS,TANMH,BISHOP HEAD,,,-76.040867,38.217056,,358.83,1452144,047,HONGA RIVER,,,,LOWER BAY EAST
HPSBL0,MD,DO,HOOPER STRAITS,TANMH,BLOODSWORTH,,,-76.052415,38.209394,Y,294.66,1192451,292,TANGIER SOUND NORTH OF WENONA,,,,LOWER BAY EAST
HPSGR0,MD,DO,HOOPER STRAITS,TANMH,GRASSY,,,-76.05712,38.20544,Y,65.65,265684,292,TANGIER SOUND NORTH OF WENONA,,,,LOWER BAY EAST
HPSHC0,MD,DO,HOOPER STRAITS,TANMH,HOPKINS COVE,,,-76.047677,38.217637,Y,96.34,389859,047,HONGA RIVER,,,,LOWER BAY EAST
HPSHS0,MD,DO,HOOPER STRAITS,TANMH,HOOPER STRAIT,,"HOOPERS ISLAND,HOOPERS ISLAND ROCK,HOOPERS ROCK,HOOPERS BAR",-76.112753,38.214066,Y,321.34,1300412,047,HONGA RIVER,,,,LOWER BAY EAST
HPSHS1,MD,DO,HOOPER STRAITS,TANMH,HOOPER STRAIT ADD 1,ADDITION 1,,-76.105963,38.207337,,457.43,1851157,292,TANGIER SOUND NORTH OF WENONA,,,,LOWER BAY EAST
HPSHS2,MD,DO,HOOPER STRAITS,TANMH,HOOPER STRAIT ADD 2,ADDITION 2,,-76.106947,38.222664,,265.16,1073067,047,HONGA RIVER,,,,LOWER BAY EAST
HPSHS3,MD,DO,HOOPER STRAITS,TANMH,HOOPER STRAIT ADD 3,ADDITION 3,,-76.122739,38.22213,,323.3,1308368,047,HONGA RIVER,,,,LOWER BAY EAST
HPSJI0,MD,DO,HOOPER STRAITS,HNGMH,JENNY ISLAND,,,-76.060519,38.227461,,321.59,1301412,047,HONGA RIVER,,,,LOWER BAY EAST
HPSLH0,MD,DO,HOOPER STRAITS,HNGMH,LIGHT HOUSE,,,-76.086822,38.236882,,1422.7,5757445,047,HONGA RIVER,,,,LOWER BAY EAST
HPSOK0,MD,DO,HOOPER STRAITS,TANMH,OKAHANIKAN,,,-76.074838,38.201746,,1187.15,4804224,292,TANGIER SOUND NORTH OF WENONA,,,,LOWER BAY EAST
HPSRI0,MD,DO,HOOPER STRAITS,CB5MH,RICHLAND,,,-76.138519,38.212228,Y,27.33,110589,047,HONGA RIVER,,,,LOWER BAY EAST
HPSRS0,MD,DO,HOOPER STRAITS,TANMH,RED SECTOR,,,-76.037496,38.209965,Y,57.01,230711,292,TANGIER SOUND NORTH OF WENONA,,,,LOWER BAY EAST
KDSBO0,MD,DO,KEDGES STRAITS,TANMH,BOUNDARY,,,-76.072241,38.081458,Y,101.84,412150,192,TANGIER SOUND SOUTH OF WENONA,,,,LOWER BAY EAST
KDSDM0,MD,SO,KEDGES STRAITS,TANMH,DEL MAE MUDS,,,-76.057467,38.060559,,153.42,620854,192,TANGIER SOUND SOUTH OF WENONA,,,,LOWER BAY EAST
KDSFG0,MD,SO,KEDGES STRAITS,TANMH,FOG POINT,,,-76.09108333,38.02798333,,,,192,TANGIER SOUND SOUTH OF WENONA,,,,LOWER BAY EAST
KDSKS0,MD,SO,KEDGES STRAITS,TANMH,KEDGE STRAITS,,,-76.079154,38.059121,Y,631.73,2556541,192,TANGIER SOUND SOUTH OF WENONA,,,,LOWER BAY EAST
KDSKS1,MD,SO,KEDGES STRAITS,TANMH,KEDGES STRAITS ADD 1,ADDITION 1,KEDGE STRAITS,-76.108739,38.050097,,3740.49,15137232,129,CHESAPEAKE BAY SOUTH OF COVE POINT AND EAST OF SHIP CHANNEL,,,,LOWER BAY EAST
KDSNK0,MD,SO,KEDGES STRAITS,TANMH,NORTH KEDGES STRAITS,,SEDGY POINT,-76.049971,38.082023,,816.58,3304580,192,TANGIER SOUND SOUTH OF WENONA,,,,LOWER BAY EAST
KDSOC0,MD,SO,KEDGES STRAITS,TANMH,OYSTER CREEK,,,-76.058768,38.069712,Y,545.45,2207377,192,TANGIER SOUND SOUTH OF WENONA,,,,LOWER BAY EAST
KDSSH0,MD,SO,KEDGES STRAITS,TANMH,SHEEPSHEAD,,,-76.020543,38.067453,,1018.29,4120858,192,TANGIER SOUND SOUTH OF WENONA,,,,LOWER BAY EAST
KDSSK0,MD,SO,KEDGES STRAITS,TANMH,SOUTH KEDGES STRAITS,,,-76.030292,38.039223,,587.56,2377767,192,TANGIER SOUND SOUTH OF WENONA,,,,LOWER BAY EAST
KDSSS0,MD,SO,KEDGES STRAITS,TANMH,STRAITS SHORE,,OYSTER CREEK,-76.065978,38.080467,Y,161.54,653743,192,TANGIER SOUND SOUTH OF WENONA,,,,LOWER BAY EAST
KDSWS0,MD,SO,KEDGES STRAITS,TANMH,WESTERN ISLANDS,,,-76.030744,38.060317,,,,192,TANGIER SOUND SOUTH OF WENONA,,,,LOWER BAY EAST
KDSWS1,MD,SO,KEDGES STRAITS,TANMH,WESTERN ISLAND ADDITION,ADDITION,,-76.046842,38.056293,,,,192,TANGIER SOUND SOUTH OF WENONA,,,,LOWER BAY EAST
KESBC0,MD,QA,KENT SHORE,CB3MH,BROAD CREEK,,"BAY BRIDGE, GRAVEL RUN",-76.344149,39.003395,Y,1533.79,6207024,127,CHESAPEAKE BAY SOUTH OF BRIDGE AND NORTH OF LINE BETWEEN FAIRHAVEN AND KENT POINT,,,,MID-BAY EAST
KESBH0,MD,QA,KENT SHORE,CB4MH,BRICK HOUSE,,,-76.369771,38.946532,Y,886.21,3586354,127,CHESAPEAKE BAY SOUTH OF BRIDGE AND NORTH OF LINE BETWEEN FAIRHAVEN AND KENT POINT,,,Yes,MID-BAY EAST
KESGT0,MD,QA,KENT SHORE,CB4MH,GUM THICKET,,HALFWAY,-76.381122,38.892621,Y,333.13,1348134,127,CHESAPEAKE BAY SOUTH OF BRIDGE AND NORTH OF LINE BETWEEN FAIRHAVEN AND KENT POINT,,,,MID-BAY EAST
KESGY0,MD,QA,KENT SHORE,CB4MH,GRAVEYARD,,KENT POINT,-76.386402,38.858982,Y,386.97,1566018,127,CHESAPEAKE BAY SOUTH OF BRIDGE AND NORTH OF LINE BETWEEN FAIRHAVEN AND KENT POINT,,,,MID-BAY EAST
KESHA0,MD,QA,KENT SHORE,CB4MH,HALFWAY,,GUM THICKET,-76.382311,38.876528,Y,267.1,1080914,127,CHESAPEAKE BAY SOUTH OF BRIDGE AND NORTH OF LINE BETWEEN FAIRHAVEN AND KENT POINT,,,,MID-BAY EAST
KESKP0,MD,QA,KENT SHORE,CB4MH,KENT POINT,,GRAVEYARD,-76.385643,38.842677,Y,444.65,1799421,127,CHESAPEAKE BAY SOUTH OF BRIDGE AND NORTH OF LINE BETWEEN FAIRHAVEN AND KENT POINT,,,,MID-BAY EAST
LAABS0,MD,AA,LOWER ANNE ARUNDEL SHORE,CB4MH,BAY SHORE,,"BACK OF THE BAR,PARKERS",-76.497463,38.800073,Y,2930,11857269,127,CHESAPEAKE BAY SOUTH OF BRIDGE AND NORTH OF LINE BETWEEN FAIRHAVEN AND KENT POINT,,,,MID-BAY WEST
LAACO0,MD,AA,LOWER ANNE ARUNDEL SHORE,CB4MH,COOTS,,THREE SISTERS,-76.464659,38.864771,Y,237.47,961011,127,CHESAPEAKE BAY SOUTH OF BRIDGE AND NORTH OF LINE BETWEEN FAIRHAVEN AND KENT POINT,,,,MID-BAY WEST
LAAFA0,MD,AA,LOWER ANNE ARUNDEL SHORE,CB4MH,FAIRHAVEN,,,-76.549278,38.752873,Y,341.03,1380081,027,CHESAPEAKE BAY NORTH OF COVE POINT TO AREA 127,,,,MID-BAY WEST
LAAHA0,MD,AA,LOWER ANNE ARUNDEL SHORE,CB4MH,HACKETT POINT,,HACKETTS BAR,-76.41913,38.977937,Y,1115.62,4514755,127,CHESAPEAKE BAY SOUTH OF BRIDGE AND NORTH OF LINE BETWEEN FAIRHAVEN AND KENT POINT,,Yes,Yes,MID-BAY WEST
LAAHB0,MD,AA,LOWER ANNE ARUNDEL SHORE,CB4MH,HERRING BAY REEF,,,-76.549441,38.755895,,,,027,CHESAPEAKE BAY NORTH OF COVE POINT TO AREA 127,,,,MID-BAY WEST
LAAHP0,MD,AA,LOWER ANNE ARUNDEL SHORE,CB4MH,HOLLAND POINT,,,-76.515286,38.743698,Y,2646.89,10711601,027,CHESAPEAKE BAY NORTH OF COVE POINT TO AREA 127,,Yes,Yes,MID-BAY WEST
LAAKC0,MD,AA,LOWER ANNE ARUNDEL SHORE,CB4MH,KEITH CAMPBELL OYSTER REEF,,,-76.447433,38.94895,,0.16,,027,CHESAPEAKE BAY NORTH OF COVE POINT TO AREA 127,NOB Sanctuary,,,MID-BAY WEST
LAALO0,MD,AA,LOWER ANNE ARUNDEL SHORE,CB4MH,LONG,,,-76.5247,38.756151,Y,1275.89,5163347,027,CHESAPEAKE BAY NORTH OF COVE POINT TO AREA 127,,,,MID-BAY WEST
LAALU0,MD,AA,LOWER ANNE ARUNDEL SHORE,CB4MH,LULU,,,-76.460882,38.871693,Y,1745.96,7065663,127,CHESAPEAKE BAY SOUTH OF BRIDGE AND NORTH OF LINE BETWEEN FAIRHAVEN AND KENT POINT,,,,MID-BAY WEST
LAAMM0,MD,AA,LOWER ANNE ARUNDEL SHORE,CB4MH,MARONE MINI REEF,,,-76.455067,39.00105,,0.0012,,027,CHESAPEAKE BAY NORTH OF COVE POINT TO AREA 127,Sanctuary,,,UPPER BAY WEST
LAAOW0,MD,AA,LOWER ANNE ARUNDEL SHORE,CB4MH,OLD WOMAN,,,-76.463955,38.895405,Y,574.49,2324859,127,CHESAPEAKE BAY SOUTH OF BRIDGE AND NORTH OF LINE BETWEEN FAIRHAVEN AND KENT POINT,,,,MID-BAY WEST
LAAPA0,MD,AA,LOWER ANNE ARUNDEL SHORE,CB4MH,PARKER,,,-76.505193,38.794851,Y,306.32,1239622,127,CHESAPEAKE BAY SOUTH OF BRIDGE AND NORTH OF LINE BETWEEN FAIRHAVEN AND KENT POINT,,,,MID-BAY WEST
LAASH0,MD,AA,LOWER ANNE ARUNDEL SHORE,CB4MH,SHUFFLERS,,THREE SISTERS,-76.477233,38.868141,Y,355.83,1439977,127,CHESAPEAKE BAY SOUTH OF BRIDGE AND NORTH OF LINE BETWEEN FAIRHAVEN AND KENT POINT,,,,MID-BAY WEST
LAASN0,MD,AA,LOWER ANNE ARUNDEL SHORE,CB3MH,SANDY POINT SOUTH,,SANDY POINT,-76.396265,39.00073,Y,397.24,1607588,127,CHESAPEAKE BAY SOUTH OF BRIDGE AND NORTH OF LINE BETWEEN FAIRHAVEN AND KENT POINT,,,,UPPER BAY WEST
LAASS0,MD,AA,LOWER ANNE ARUNDEL SHORE,CB4MH,SAND SPIT,,,-76.427037,38.992391,Y,5.88,23803,127,CHESAPEAKE BAY SOUTH OF BRIDGE AND NORTH OF LINE BETWEEN FAIRHAVEN AND KENT POINT,,,,MID-BAY WEST
LAATH0,MD,AA,LOWER ANNE ARUNDEL SHORE,CB4MH,THREE SISTERS,,"COOTS,EDGE OF DEEP WATER,NORTH WILDGROUND,SUNKEN ISLAND,WILDGROUND,SHUFFLERS",-76.464202,38.845393,Y,2604.24,10539001,127,CHESAPEAKE BAY SOUTH OF BRIDGE AND NORTH OF LINE BETWEEN FAIRHAVEN AND KENT POINT,,,Yes,MID-BAY WEST
LAATN0,MD,AA,LOWER ANNE ARUNDEL SHORE,CB4MH,THOMAS POINT NORTH,,,-76.439922,38.906186,Y,448.36,1814450,127,CHESAPEAKE BAY SOUTH OF BRIDGE AND NORTH OF LINE BETWEEN FAIRHAVEN AND KENT POINT,,,,MID-BAY WEST
LAATP0,MD,AA,LOWER ANNE ARUNDEL SHORE,CB4MH,TOLLY POINT,,"TALANCE,TALIS,TALLEYS",-76.442392,38.946255,Y,895.49,3623916,127,CHESAPEAKE BAY SOUTH OF BRIDGE AND NORTH OF LINE BETWEEN FAIRHAVEN AND KENT POINT,,,Yes,MID-BAY WEST
LAATS0,MD,AA,LOWER ANNE ARUNDEL SHORE,CB4MH,THOMAS POINT SOUTH,,,-76.444094,38.895405,Y,509.05,2060066,127,CHESAPEAKE BAY SOUTH OF BRIDGE AND NORTH OF LINE BETWEEN FAIRHAVEN AND KENT POINT,,,,MID-BAY WEST
LAAUG0,MD,AA,LOWER ANNE ARUNDEL SHORE,CB4MH,UNDER THE GUMS,,,-76.453012,38.925096,Y,479.92,1942150,127,CHESAPEAKE BAY SOUTH OF BRIDGE AND NORTH OF LINE BETWEEN FAIRHAVEN AND KENT POINT,,,,MID-BAY WEST
LAAWB0,MD,AA,LOWER ANNE ARUNDEL SHORE,CB4MH,WRECK BUOY,,,-76.436696,38.964196,Y,46.73,189123,127,CHESAPEAKE BAY SOUTH OF BRIDGE AND NORTH OF LINE BETWEEN FAIRHAVEN AND KENT POINT,,,,MID-BAY WEST
LAAWC0,MD,AA,LOWER ANNE ARUNDEL SHORE,CB4MH,WHITEHALL CREEK,,,-76.433518,38.994351,Y,45.78,185246,127,CHESAPEAKE BAY SOUTH OF BRIDGE AND NORTH OF LINE BETWEEN FAIRHAVEN AND KENT POINT,,,,MID-BAY WEST
LAAWG0,MD,AA,LOWER ANNE ARUNDEL SHORE,CB4MH,WILD GROUND,,,-76.465221,38.828488,Y,248.15,1004225,127,CHESAPEAKE BAY SOUTH OF BRIDGE AND NORTH OF LINE BETWEEN FAIRHAVEN AND KENT POINT,,,,MID-BAY WEST
LAAWH0,MD,AA,LOWER ANNE ARUNDEL SHORE,CB4MH,WHITEHALL,,GREENSBURY,-76.447355,38.974326,Y,548.84,2221073,127,CHESAPEAKE BAY SOUTH OF BRIDGE AND NORTH OF LINE BETWEEN FAIRHAVEN AND KENT POINT,,,,MID-BAY WEST
LARBC0,MD,SO,LITTLE ANNEMESSEX RIVER,TANMH,BACK CREEK,,,-75.861454,37.989573,,139.06,562755,192,TANGIER SOUND SOUTH OF WENONA,,,,LITTLE ANNEMESSEX RIVER
LARCA0,MD,SO,LITTLE ANNEMESSEX RIVER,TANMH,CANCER,,,-75.869446,37.98705,,14.28,57796,192,TANGIER SOUND SOUTH OF WENONA,,,,LITTLE ANNEMESSEX RIVER
LARCR0,MD,SO,LITTLE ANNEMESSEX RIVER,TANMH,CRISFEILD HERITAGE FOUNDATION MINI REEF,,,-75.859317,37.978233,,0.0012,,192,TANGIER SOUND SOUTH OF WENONA,Sanctuary,,,LITTLE ANNEMESSEX RIVER
LARJC0,MD,SO,LITTLE ANNEMESSEX RIVER,TANMH,JENKINS CREEK,,,-75.86459,37.956162,,114.94,465141,192,TANGIER SOUND SOUTH OF WENONA,,,,LITTLE ANNEMESSEX RIVER
LARKI0,MD,SO,LITTLE ANNEMESSEX RIVER,TANMH,KINGS ISLAND,,,-75.878456,37.956252,,525.26,2125658,192,TANGIER SOUND SOUTH OF WENONA,,,,LITTLE ANNEMESSEX RIVER
LARLI0,MD,SO,LITTLE ANNEMESSEX RIVER,TANMH,LIGHTHOUSE,,,-75.875494,37.970568,,64.88,262573,192,TANGIER SOUND SOUTH OF WENONA,,,,LITTLE ANNEMESSEX RIVER
LARLO0,MD,SO,LITTLE ANNEMESSEX RIVER,TANMH,LOVELLETTE,,,-75.868772,37.966736,,70.78,286423,192,TANGIER SOUND SOUTH OF WENONA,,,,LITTLE ANNEMESSEX RIVER
LAROH0,MD,SO,LITTLE ANNEMESSEX RIVER,TANMH,OLD HOUSE,,,-75.889648,37.973779,,91.68,371020,192,TANGIER SOUND SOUTH OF WENONA,,,,LITTLE ANNEMESSEX RIVER
LBEBB0,MD,DO,LOWER BAY EAST,TANMH,BUYBACK SITE - DORCHESTER,,,-76.309667,38.045167,,,,229,CHESAPEAKE BAY SOUTH OF COVE POINT AND WEST OF SHIP CHANNEL,NOB Harvest,,,LOWER BAY EAST
LBECC0,MD,SO,LOWER BAY EAST,TANMH,CHURCH CREEK,,,-76.083269,37.989302,Y,1178.52,4769318,192,TANGIER SOUND SOUTH OF WENONA,,,,LOWER BAY EAST
LBEJH0,MD,DO,LOWER BAY EAST,TANMH,JUGS HILL,,,-76.101237,38.141114,,215.5,872113,292,TANGIER SOUND NORTH OF WENONA,,,,LOWER BAY EAST
LBENM0,MD,DO,LOWER BAY EAST,CB5MH,NORTHWEST MIDDLEGROUND,,,-76.185768,38.119189,Y,1171.67,4741578,129,CHESAPEAKE BAY SOUTH OF COVE POINT AND EAST OF SHIP CHANNEL,,,,LOWER BAY EAST
LBEPH0,MD,DO,LOWER BAY EAST,TANMH,PARKS HILL,,,-76.108485,38.11735,,327.34,1324704,192,TANGIER SOUND SOUTH OF WENONA,,,,LOWER BAY EAST
LBESE0,MD,DO,LOWER BAY EAST,CB5MH,SOUTHEAST MIDDLEGROUND,,,-76.158825,38.101544,Y,469.86,1901442,129,CHESAPEAKE BAY SOUTH OF COVE POINT AND EAST OF SHIP CHANNEL,,,,LOWER BAY EAST
LBESW0,MD,SO,LOWER BAY EAST,CB5MH,SOUTHWEST MIDDLEGROUND,,,-76.148607,38.002955,Y,3087.43,12494398,129,CHESAPEAKE BAY SOUTH OF COVE POINT AND EAST OF SHIP CHANNEL,,,,LOWER BAY EAST
LCBBB0,MD,WO,LOWER CHINCOTEAGUE BAY,SESMD,BIG BAY POINT,,,-75.289157,38.072671,Y,15.8,63924,212,CHINCOTEAGUE BAY SOUTH OF BLUE POND,,,,CHINCOTEAGUE BAY
LCBBC0,MD,WO,LOWER CHINCOTEAGUE BAY,SESMD,BEEF CREEK,,,-75.296855,38.098391,Y,5.41,21911,212,CHINCOTEAGUE BAY SOUTH OF BLUE POND,,,,CHINCOTEAGUE BAY
LCBDI0,MD,WO,LOWER CHINCOTEAGUE BAY,SESMD,DIAMOND,,,-75.280292,38.094776,Y,13.96,56481,212,CHINCOTEAGUE BAY SOUTH OF BLUE POND,,,,CHINCOTEAGUE BAY
LCBDO0,MD,DO,LOWER BAY,,DO CO PD,,,-76.174811,38.117434,,,,129,CHESAPEAKE BAY SOUTH OF COVE POINT AND EAST OF SHIP CHANNEL,,,,LOWER BAY EAST
LCBDR0,MD,WO,LOWER CHINCOTEAGUE BAY,SESMD,DRUM,,,-75.269669,38.073273,Y,31.09,125829,212,CHINCOTEAGUE BAY SOUTH OF BLUE POND,,,,CHINCOTEAGUE BAY
LCBDW0,MD,WO,LOWER CHINCOTEAGUE BAY,SESMD,DEEP WATER,,,-75.283851,38.06434,Y,4.16,16818,212,CHINCOTEAGUE BAY SOUTH OF BLUE POND,,,,CHINCOTEAGUE BAY
LCBEC0,MD,WO,LOWER CHINCOTEAGUE BAY,SESMD,EASTER COVE,,,-75.310762,38.074206,Y,7.29,29499,212,CHINCOTEAGUE BAY SOUTH OF BLUE POND,,,,CHINCOTEAGUE BAY
LCBFP0,MD,,LOWER BAY,SESMD,FOG POINT,,,-76.090424,38.031459,,,,192,TANGIER SOUND SOUTH OF WENONA,,,,
LCBHN0,MD,WO,LOWER CHINCOTEAGUE BAY,SESMD,HORSEHEAD NORTH,,,-75.263901,38.048719,Y,13.69,55396,212,CHINCOTEAGUE BAY SOUTH OF BLUE POND,,,,CHINCOTEAGUE BAY
LCBHS0,MD,WO,LOWER CHINCOTEAGUE BAY,SESMD,HORSEHEAD SOUTH,,,-75.26865,38.044561,Y,27.49,111261,212,CHINCOTEAGUE BAY SOUTH OF BLUE POND,,,,CHINCOTEAGUE BAY
LCBKE0,MD,WO,LOWER CHINCOTEAGUE BAY,SESMD,KENNEL,,,-75.280498,38.073503,Y,69.16,279897,212,CHINCOTEAGUE BAY SOUTH OF BLUE POND,,,,CHINCOTEAGUE BAY
LCBLT0,MD,WO,LOWER CHINCOTEAGUE BAY,SESMD,LEVIN TRUMP,,LEVIN TUMP,-75.266886,38.061529,Y,27.24,110252,212,CHINCOTEAGUE BAY SOUTH OF BLUE POND,,,,CHINCOTEAGUE BAY
LCBMG0,MD,,LOWER BAY,,MIDDLEGROUND,,,-76.1745,38.117,,,,129,CHESAPEAKE BAY SOUTH OF COVE POINT AND EAST OF SHIP CHANNEL,,,,TANGIER SOUND
LCBMP0,MD,WO,LOWER CHINCOTEAGUE BAY,SESMD,MARTON POINT,,MARTIN POINT,-75.295941,38.091137,Y,63.12,255456,212,CHINCOTEAGUE BAY SOUTH OF BLUE POND,,,,CHINCOTEAGUE BAY
LCBMT0,MD,WO,LOWER CHINCOTEAGUE BAY,SESMD,MINK TUMP,,,-75.313383,38.071414,Y,5.57,22532,212,CHINCOTEAGUE BAY SOUTH OF BLUE POND,,,,CHINCOTEAGUE BAY
LCBPH0,MD,WO,LOWER CHINCOTEAGUE BAY,SESMD,PURNELL HAMMOCK,,,-75.285416,38.103113,Y,7.07,28619,212,CHINCOTEAGUE BAY SOUTH OF BLUE POND,,,,CHINCOTEAGUE BAY
LCBPL0,MD,,LOWER BAY,,POINT LOOKOUT,,,-76.31335,38.067001,,,,229,CHESAPEAKE BAY SOUTH OF COVE POINT AND WEST OF SHIP CHANNEL,,,,POTOMAC RIVER NORTHSHORE
LCBRA0,MD,WO,LOWER CHINCOTEAGUE BAY,SESMD,RATTLESNAKE,,,-75.304138,38.094869,Y,17.6,71224,212,CHINCOTEAGUE BAY SOUTH OF BLUE POND,,,,CHINCOTEAGUE BAY
LCBSH0,MD,WO,LOWER CHINCOTEAGUE BAY,SESMD,SHEEP,,,-75.319357,38.069865,Y,29.64,119940,212,CHINCOTEAGUE BAY SOUTH OF BLUE POND,,,,CHINCOTEAGUE BAY
LCBSM0,MD,WO,LOWER CHINCOTEAGUE BAY,SESMD,STRIKING MARSH,,,-75.274732,38.062876,Y,56.76,229707,212,CHINCOTEAGUE BAY SOUTH OF BLUE POND,,,,CHINCOTEAGUE BAY
LCBSO0,MD,SO,LOWER BAY,,SOMERSET CO PD,,,-75.906704,38.039127,,,,192,TANGIER SOUND SOUTH OF WENONA,,,,TANGIER SOUND
LCBTO0,MD,WO,LOWER CHINCOTEAGUE BAY,SESMD,TOBY,,,-75.29495,38.06833,Y,52.49,212411,212,CHINCOTEAGUE BAY SOUTH OF BLUE POND,,,,CHINCOTEAGUE BAY
LCBWR0,MD,WO,LOWER CHINCOTEAGUE BAY,SESMD,WHITE ROCK,,,-75.2915,38.056302,Y,286.59,1159773,212,CHINCOTEAGUE BAY SOUTH OF BLUE POND,,,,CHINCOTEAGUE BAY
LCHBL0,MD,QA,LOWER CHESTER RIVER,CHSMH,BLUNT,,BLACK BEARD,-76.20283,38.982776,Y,377.99,1529676,131,CHESTER RIVER BELOW QUEENSTOWN CREEK,,,,CHESTER RIVER
LCHBR0,MD,KE,LOWER CHESTER RIVER,CHSMH,BUOY ROCK,,"BOWIE,DEVILS PLAYGROUND",-76.223143,38.998837,Y,323.13,1307655,131,CHESTER RIVER BELOW QUEENSTOWN CREEK,,Yes,Yes,CHESTER RIVER
LCHCA0,MD,QA,LOWER CHESTER RIVER,CHSMH,CARVEL,,,-76.282782,39.000463,Y,123.93,501514,131,CHESTER RIVER BELOW QUEENSTOWN CREEK,,,,CHESTER RIVER
LCHDL0,MD,KE,LOWER CHESTER RIVER,CB3MH,DEEP LANDING HOLE,,,-76.261365,39.146615,Y,4.17,16888,025,CHESAPEAKE BAY NORTH OF BRIDGE AND SOUTH OF WORTON POINT,,,,CHESTER RIVER
LCHDR0,MD,KE,LOWER CHESTER RIVER,CHSMH,DREDGE ROCK,,,-76.257715,39.017003,Y,190.58,771267,131,CHESTER RIVER BELOW QUEENSTOWN CREEK,,,,CHESTER RIVER
LCHEL0,MD,KE,LOWER CHESTER RIVER,CB3MH,ENTRANCE LUMPS,,,-76.254927,39.055819,Y,248.46,1005502,131,CHESTER RIVER BELOW QUEENSTOWN CREEK,,,,CHESTER RIVER
LCHEN0,MD,KE,LOWER CHESTER RIVER,CB3MH,EAST NECK BAY,,,-76.268955,39.070337,Y,187.73,759706,025,CHESAPEAKE BAY NORTH OF BRIDGE AND SOUTH OF WORTON POINT,,,,CHESTER RIVER
LCHFE0,MD,QA,LOWER CHESTER RIVER,CHSMH,FERRY,,"FERRY POINT,FERRY CHANNEL,RINGOLD POINT",-76.255064,39.00113,Y,644.88,2609743,131,CHESTER RIVER BELOW QUEENSTOWN CREEK,,,,CHESTER RIVER
LCHFP0,MD,QA,LOWER CHESTER RIVER,CHSMH,FLOOD POINT,,,-76.24421,38.978629,Y,19.51,78948,131,CHESTER RIVER BELOW QUEENSTOWN CREEK,,,,CHESTER RIVER
LCHGS0,MD,KE,LOWER CHESTER RIVER,CB3MH,GUM SPRING,,,-76.253948,39.11105,Y,86.44,349793,025,CHESAPEAKE BAY NORTH OF BRIDGE AND SOUTH OF WORTON POINT,,,,CHESTER RIVER
LCHHT0,MD,KE,LOWER CHESTER RIVER,CB3MH,HICKORY THICKET,,,-76.24254,39.0682,Y,414.82,1678723,131,CHESTER RIVER BELOW QUEENSTOWN CREEK,,,,CHESTER RIVER
LCHHU0,MD,KE,LOWER CHESTER RIVER,CB3MH,HUNTINGFIELD,,LUMPS,-76.257305,39.124861,Y,399.74,1617696,025,CHESAPEAKE BAY NORTH OF BRIDGE AND SOUTH OF WORTON POINT,,,,CHESTER RIVER
LCHKI0,MD,QA,LOWER CHESTER RIVER,CHSMH,KENT ISLAND NARROWS,,"CHANNEL,FERRY CHANNEL",-76.24729,38.97385,Y,51.01,206450,131,CHESTER RIVER BELOW QUEENSTOWN CREEK,,,,CHESTER RIVER
LCHLN0,MD,KE,LOWER CHESTER RIVER,CB3MH,LITTLE NECK,,,-76.264852,39.140677,Y,27.09,109610,025,CHESAPEAKE BAY NORTH OF BRIDGE AND SOUTH OF WORTON POINT,,,,CHESTER RIVER
LCHLO0,MD,QA,LOWER CHESTER RIVER,CHSMH,LONG POINT,,,-76.233633,38.992737,Y,444.27,1797894,131,CHESTER RIVER BELOW QUEENSTOWN CREEK,,,,CHESTER RIVER
LCHLP0,MD,QA,LOWER CHESTER RIVER,CB3MH,LOVE POINT,,,-76.300795,39.053153,Y,2158.44,8734909,025,CHESAPEAKE BAY NORTH OF BRIDGE AND SOUTH OF WORTON POINT,,,,CHESTER RIVER
LCHMD0,MD,KE,LOWER CHESTER RIVER,CB3MH,MUDDY DRAIN,,,-76.268223,39.127354,Y,197.02,797317,025,CHESAPEAKE BAY NORTH OF BRIDGE AND SOUTH OF WORTON POINT,,,,CHESTER RIVER
LCHMU0,MD,KE,LOWER CHESTER RIVER,CHSMH,MUD,,MUD ROCK,-76.237017,39.009158,Y,227.23,919566,131,CHESTER RIVER BELOW QUEENSTOWN CREEK,,,,CHESTER RIVER
LCHRO0,MD,KE,LOWER CHESTER RIVER,CB3MH,ROCKHALL,,,-76.252956,39.148947,Y,4.32,17493,025,CHESAPEAKE BAY NORTH OF BRIDGE AND SOUTH OF WORTON POINT,,,,CHESTER RIVER
LCHSB0,MD,QA,LOWER CHESTER RIVER,CB3MH,STRONG BAY,,,-76.290896,39.024335,Y,273.07,1105064,131,CHESTER RIVER BELOW QUEENSTOWN CREEK,,,,CHESTER RIVER
LCHSC0,MD,KE,LOWER CHESTER RIVER,CB3MH,SWAN CREEK,,,-76.255865,39.153136,Y,6.43,26039,025,CHESAPEAKE BAY NORTH OF BRIDGE AND SOUTH OF WORTON POINT,,,,CHESTER RIVER
LCHSS0,MD,KE,LOWER CHESTER RIVER,CHSMH,SIDE SHOAL,,,-76.233296,39.013032,Y,46.62,188670,131,CHESTER RIVER BELOW QUEENSTOWN CREEK,,,,CHESTER RIVER
LCHTC0,MD,KE,LOWER CHESTER RIVER,CB3MH,TAVERN CREEK,,,-76.269085,39.142585,Y,9.3,37655,025,CHESAPEAKE BAY NORTH OF BRIDGE AND SOUTH OF WORTON POINT,,,,CHESTER RIVER
LCHTH0,MD,KE,LOWER CHESTER RIVER,CB3MH,THE HAVEN,,,-76.251662,39.145021,Y,6.33,25604,025,CHESAPEAKE BAY NORTH OF BRIDGE AND SOUTH OF WORTON POINT,,,,CHESTER RIVER
LCHUB0,MD,KE,LOWER CHESTER RIVER,CB3MH,UNDER THE BAR,,,-76.259279,39.101011,Y,165.13,668253,025,CHESAPEAKE BAY NORTH OF BRIDGE AND SOUTH OF WORTON POINT,,,,CHESTER RIVER
LCHWB0,MD,KE,LOWER CHESTER RIVER,CB3MH,WICKES BEACH,,WEEKS BAR,-76.26385,39.032139,Y,472.46,1911959,131,CHESTER RIVER BELOW QUEENSTOWN CREEK,,,,CHESTER RIVER
LCHWF0,MD,KE,LOWER CHESTER RIVER,CB3MH,WINDMILL FLATS,,,-76.260586,39.132256,Y,118.92,481238,025,CHESAPEAKE BAY NORTH OF BRIDGE AND SOUTH OF WORTON POINT,,,,CHESTER RIVER
LCHWH0,MD,KE,LOWER CHESTER RIVER,CB3MH,WHITE HORSE,,,-76.254468,39.147199,Y,6.42,25973,025,CHESAPEAKE BAY NORTH OF BRIDGE AND SOUTH OF WORTON POINT,,,,CHESTER RIVER
LCHWM0,MD,KE,LOWER CHESTER RIVER,CB3MH,WHITE MARSH,,,-76.24696,39.096444,Y,611.98,2476614,025,CHESAPEAKE BAY NORTH OF BRIDGE AND SOUTH OF WORTON POINT,,,,CHESTER RIVER
LCRBE0,MD,TA,LOWER CHOPTANK RIVER,CHOMH1,BENONI,,,-76.211694,38.659264,Y,1044.76,4227987,137,CHOPTANK RIVER BELOW CASTLEHAVEN,,,,CHOPTANK RIVER
LCRBW0,MD,TA,LOWER CHOPTANK RIVER,CHOMH1,BLACK WALNUT,,"BLACK WALNUT MUD,BLACK WALNUT SANDS,BLACK WALNUT SWASH",-76.318293,38.66525,Y,1387.45,5614810,137,CHOPTANK RIVER BELOW CASTLEHAVEN,,,,CHOPTANK RIVER
LCRCA0,MD,DO,LOWER CHOPTANK RIVER,CHOMH1,CASTLE HAVEN,,DIVIDING CREEK,-76.188632,38.627735,Y,1210.11,4897127,137,CHOPTANK RIVER BELOW CASTLEHAVEN,,,,CHOPTANK RIVER
LCRCA1,MD,DO,LOWER CHOPTANK RIVER,CHOMH1,CASTLE HAVEN ADD 1,ADDITION 1,,-76.197593,38.632977,,636.42,2575502,137,CHOPTANK RIVER BELOW CASTLEHAVEN,,,,CHOPTANK RIVER
LCRCH0,MD,TA,LOWER CHOPTANK RIVER,CHOMH1,CHURCH HILL,,BAR NECK,-76.291655,38.690508,Y,587.32,2376788,137,CHOPTANK RIVER BELOW CASTLEHAVEN,,,,CHOPTANK RIVER
LCRCL0,MD,TA,LOWER CHOPTANK RIVER,CHOMH1,CHOPTANK LUMPS,,RIVER MUD,-76.245483,38.659211,Y,378.69,1532513,137,CHOPTANK RIVER BELOW CASTLEHAVEN,,,,CHOPTANK RIVER
LCRCP0,MD,DO,LOWER CHOPTANK RIVER,CHOMH1,COOK POINT,,,-76.284105,38.650878,Y,989.09,4002693,137,CHOPTANK RIVER BELOW CASTLEHAVEN,,Yes,Yes,CHOPTANK RIVER
LCRCW0,MD,DO,LOWER CHOPTANK RIVER,CHOMH1,CORNERS WHARF,,,-76.222111,38.616898,Y,141.65,573242,137,CHOPTANK RIVER BELOW CASTLEHAVEN,,,,CHOPTANK RIVER
LCRCW1,MD,DO,LOWER CHOPTANK RIVER,CHOMH1,CORNERS WHARF ADD 1,ADDITION 1,,-76.221834,38.634147,,285.31,1154598,137,CHOPTANK RIVER BELOW CASTLEHAVEN,,,,CHOPTANK RIVER
LCRDA0,MD,TA,LOWER CHOPTANK RIVER,CHOMH1,DAWSON,,BUNKER HILL,-76.272622,38.674361,Y,585.51,2369465,137,CHOPTANK RIVER BELOW CASTLEHAVEN,,,,CHOPTANK RIVER
LCRDA1,MD,TA,LOWER CHOPTANK RIVER,CHOMH1,DAWSON ADD 1,ADDITION 1,,-76.258136,38.68281,,659.15,2667494,137,CHOPTANK RIVER BELOW CASTLEHAVEN,,,,CHOPTANK RIVER
LCRFR0,MD,TA,LOWER CHOPTANK RIVER,CHOMH1,FRANCE,,RIVER MUD,-76.276455,38.69058,Y,538.94,2181024,137,CHOPTANK RIVER BELOW CASTLEHAVEN,,,,CHOPTANK RIVER
LCRLH0,MD,DO,LOWER CHOPTANK RIVER,CHOMH1,LOGANS HILL,,,-76.211694,38.645122,Y,407.84,1650472,137,CHOPTANK RIVER BELOW CASTLEHAVEN,,,,CHOPTANK RIVER
LCRLI0,MD,TA,LOWER CHOPTANK RIVER,CHOMH1,LIGHTHOUSE,,"CAMBRIDGE,LIGHTHOUSE MIDDLES,MUD DITCH,SLEW",-76.186172,38.65466,Y,718.47,2907557,137,CHOPTANK RIVER BELOW CASTLEHAVEN,,Yes,,CHOPTANK RIVER
LCRLI1,MD,TA,LOWER CHOPTANK RIVER,CHOMH1,LIGHTHOUSE ADD 1,ADDITION 1,,-76.186305,38.66524,,75.25,304532,137,CHOPTANK RIVER BELOW CASTLEHAVEN,,,,CHOPTANK RIVER
LCRPH0,MD,TA,LOWER CHOPTANK RIVER,CHOMH1,PLEASANT HILL,,"EASTARD HILL,EASTERN HILL",-76.291633,38.675175,Y,555.86,2249473,137,CHOPTANK RIVER BELOW CASTLEHAVEN,,,,CHOPTANK RIVER
LCRRB0,MD,DO,LOWER CHOPTANK RIVER,CHOMH1,RED BUOY,,,-76.307439,38.641722,Y,116.63,471999,137,CHOPTANK RIVER BELOW CASTLEHAVEN,,,,CHOPTANK RIVER
LCRRB1,MD,DO,LOWER CHOPTANK RIVER,CHOMH1,RED BUOY ADD 1,ADDITION 1,,-76.306042,38.636308,,544.06,2201719,137,CHOPTANK RIVER BELOW CASTLEHAVEN,,,,CHOPTANK RIVER
LCRSA0,MD,TA,LOWER CHOPTANK RIVER,CHOMH1,SANDS,,SANDYS POINT,-76.3077,38.682516,Y,713.78,2888573,137,CHOPTANK RIVER BELOW CASTLEHAVEN,,,,CHOPTANK RIVER
LCRTP0,MD,DO,LOWER CHOPTANK RIVER,CHOMH1,TODD POINT,,,-76.249808,38.647672,Y,1882.06,7616442,137,CHOPTANK RIVER BELOW CASTLEHAVEN,,,,CHOPTANK RIVER
LCRTP1,MD,DO,LOWER CHOPTANK RIVER,CHOMH1,TODD POINT ADD 1,ADDITION 1,,-76.271252,38.631909,,372.25,1506435,137,CHOPTANK RIVER BELOW CASTLEHAVEN,,,,CHOPTANK RIVER
LCRTP2,MD,DO,LOWER CHOPTANK RIVER,CHOMH1,TODD POINT ADD 2,ADDITION 2,,-76.265869,38.64364,,407.91,1650760,137,CHOPTANK RIVER BELOW CASTLEHAVEN,,,,CHOPTANK RIVER
LCRTP3,MD,DO,LOWER CHOPTANK RIVER,CHOMH1,TODD POINT ADD 3,ADDITION 3,,-76.259388,38.660229,,189.01,764884,137,CHOPTANK RIVER BELOW CASTLEHAVEN,,,,CHOPTANK RIVER
LCSCM0,MD,CA,LOWER CALVERT SHORE,CB5MH,CHINESE MUDS,,SOLOMONS,-76.37623,38.33003,Y,2362.64,9561250,229,CHESAPEAKE BAY SOUTH OF COVE POINT AND WEST OF SHIP CHANNEL,,,,LOWER BAY WEST
LCSCP0,MD,CA,LOWER CALVERT SHORE,CB5MH,COVE POINT BIGHT,,COVE POINT,-76.37489,38.366273,Y,216.54,876299,229,CHESAPEAKE BAY SOUTH OF COVE POINT AND WEST OF SHIP CHANNEL,,,,LOWER BAY WEST
LCSCP1,MD,CA,LOWER CALVERT SHORE,CB5MH,COVE POINT BIGHT ADD 1,ADDITION 1,COVE POINT ADDITION,-76.375399,38.357423,,611.22,2473525,229,CHESAPEAKE BAY SOUTH OF COVE POINT AND WEST OF SHIP CHANNEL,,,,LOWER BAY WEST
LCSHI0,MD,SM,LOWER CALVERT SHORE,CB5MH,HOG ISLAND,,,-76.387258,38.313492,Y,492.02,1991146,229,CHESAPEAKE BAY SOUTH OF COVE POINT AND WEST OF SHIP CHANNEL,,Yes,Yes,LOWER BAY WEST
LCSHI1,MD,SM,LOWER CALVERT SHORE,CB5MH,HOG ISLAND ADD 1,ADDITION 1,HOG POINT ADDITION,-76.372156,38.306656,,427.04,1728189,229,CHESAPEAKE BAY SOUTH OF COVE POINT AND WEST OF SHIP CHANNEL,,,,LOWER BAY WEST
LCSLC0,MD,CA,LOWER CALVERT SHORE,CB5MH,LITTLE COVE POINT,,"HANG PILE,HANGERS",-76.386122,38.350019,Y,216.55,876334,229,CHESAPEAKE BAY SOUTH OF COVE POINT AND WEST OF SHIP CHANNEL,,,,LOWER BAY WEST
LCSPM0,MD,CA,LOWER CALVERT SHORE,CB5MH,PARKER MOORE,,,-76.392693,38.339897,Y,219.59,888665,229,CHESAPEAKE BAY SOUTH OF COVE POINT AND WEST OF SHIP CHANNEL,,,,LOWER BAY WEST
LCSPM1,MD,CA,LOWER CALVERT SHORE,CB5MH,PARKER MOORE ADD 1,ADDITION 1,,-76.40069,38.338233,,352.33,1425841,229,CHESAPEAKE BAY SOUTH OF COVE POINT AND WEST OF SHIP CHANNEL,,,,LOWER BAY WEST
LCSSI0,MD,CA,LOWER CALVERT SHORE,CB5MH,SIMMONS,,,-76.405344,38.326833,Y,27.93,113021,229,CHESAPEAKE BAY SOUTH OF COVE POINT AND WEST OF SHIP CHANNEL,,,,LOWER BAY WEST
LCSUC0,MD,CA,LOWER CALVERT SHORE,CB5MH,UNDER THE CLIFFS,,,-76.402679,38.342377,Y,39.74,160830,229,CHESAPEAKE BAY SOUTH OF COVE POINT AND WEST OF SHIP CHANNEL,,,,LOWER BAY WEST
LPRBO0,MD,SM,LOWER POTOMAC RIVER,POTMH,BONUMS,,,-76.558099,38.090999,,424.19,1716620,177,POTOMAC RIVER SOUTH OF A LINE BETWEEN PINEY POINT AND RAGGED POINT,,,,POTOMAC RIVER SOUTHSHORE
LPRCH0,MD,SM,LOWER POTOMAC RIVER,POTMH,CORNFIELD HARBOR,,,-76.332844,38.044068,,299.41,1211684,177,POTOMAC RIVER SOUTH OF A LINE BETWEEN PINEY POINT AND RAGGED POINT,,Yes,Yes,POTOMAC RIVER NORTHSHORE
LPRCH1,MD,SM,LOWER POTOMAC RIVER,POTMH,CORNFIELD HARBOR ADD 1,ADDITION 1,,-76.334101,38.039342,,37.74,152748,177,POTOMAC RIVER SOUTH OF A LINE BETWEEN PINEY POINT AND RAGGED POINT,,,,POTOMAC RIVER NORTHSHORE
LPRCH2,MD,SM,LOWER POTOMAC RIVER,POTMH,CORNFIELD HARBOR ADD 2,ADDITION 2,CORNFIELD HARBOR ADDITION,-76.33816,38.040681,,141.74,573591,177,POTOMAC RIVER SOUTH OF A LINE BETWEEN PINEY POINT AND RAGGED POINT,,,,POTOMAC RIVER NORTHSHORE
LPRCU0,MD,SM,LOWER POTOMAC RIVER,POTMH,CURRIOMAN,,,-76.526865,38.059364,,57.29,231861,177,POTOMAC RIVER SOUTH OF A LINE BETWEEN PINEY POINT AND RAGGED POINT,,,,POTOMAC RIVER SOUTHSHORE
LPRGN0,MD,SM,LOWER POTOMAC RIVER,POTMH,GREAT NECK,,HOG ISLAND,-76.440473,37.999485,,234.11,947400,177,POTOMAC RIVER SOUTH OF A LINE BETWEEN PINEY POINT AND RAGGED POINT,,,,POTOMAC RIVER SOUTHSHORE
LPRHI0,MD,SM,LOWER POTOMAC RIVER,POTMH,HOG ISLAND,,,-76.461879,38.016419,,804.11,3254104,177,POTOMAC RIVER SOUTH OF A LINE BETWEEN PINEY POINT AND RAGGED POINT,,,,POTOMAC RIVER SOUTHSHORE
LPRJO0,MD,SM,LOWER POTOMAC RIVER,POTMH,JONES,,JONES SHORE,-76.381963,38.080673,,267.89,1084121,177,POTOMAC RIVER SOUTH OF A LINE BETWEEN PINEY POINT AND RAGGED POINT,,,,POTOMAC RIVER NORTHSHORE
LPRJO1,MD,SM,LOWER POTOMAC RIVER,POTMH,JONES ADD 1,ADDITION 1,JONES SHORE ADD 1,-76.37241,38.068188,,234.2,947768,177,POTOMAC RIVER SOUTH OF A LINE BETWEEN PINEY POINT AND RAGGED POINT,,,,POTOMAC RIVER NORTHSHORE
LPRKI0,MD,SM,LOWER POTOMAC RIVER,POTMH,KITTS,,KITTS POINT,-76.421627,38.101953,,97.38,394090,177,POTOMAC RIVER SOUTH OF A LINE BETWEEN PINEY POINT AND RAGGED POINT,,,,POTOMAC RIVER NORTHSHORE
LPRLB0,MD,SM,LOWER POTOMAC RIVER,POTMH,LOWER BANK,,,-76.379476,37.967776,,49.31,199540,177,POTOMAC RIVER SOUTH OF A LINE BETWEEN PINEY POINT AND RAGGED POINT,,,,POTOMAC RIVER SOUTHSHORE
LPRLP0,MD,SM,LOWER POTOMAC RIVER,POTMH,LYNCH POINT,,,-76.50958333,38.05045,,,,177,POTOMAC RIVER SOUTH OF A LINE BETWEEN PINEY POINT AND RAGGED POINT,,,,POTOMAC RIVER SOUTHSHORE
LPRMB0,MD,SM,LOWER POTOMAC RIVER,POTMH,MIDDLE BANKS,,,-76.361732,37.968607,,358.58,1451130,177,POTOMAC RIVER SOUTH OF A LINE BETWEEN PINEY POINT AND RAGGED POINT,,,,POTOMAC RIVER SOUTHSHORE
LPRPP0,MD,SM,LOWER POTOMAC RIVER,POTMH,PINEY POINT,,FIREDOCK,-76.52482,38.136058,,50.05,202549,177,POTOMAC RIVER SOUTH OF A LINE BETWEEN PINEY POINT AND RAGGED POINT,,,,POTOMAC RIVER NORTHSHORE
LPRSG0,MD,SM,LOWER POTOMAC RIVER,POTMH,ST. GEORGE ISLAND,,,-76.49039,38.114431,,220.88,893854,177,POTOMAC RIVER SOUTH OF A LINE BETWEEN PINEY POINT AND RAGGED POINT,,,,POTOMAC RIVER NORTHSHORE
LPRTP0,MD,SM,LOWER POTOMAC RIVER,POTMH,THICKET POINT,,,-76.507187,38.028109,,58.79,237910,177,POTOMAC RIVER SOUTH OF A LINE BETWEEN PINEY POINT AND RAGGED POINT,,,,POTOMAC RIVER SOUTHSHORE
LPXBG0,MD,CA,LOWER PATUXENT RIVER,PAXMH,BARN GATES,,"FIRST COVE,PT PATIENCE,SECOND COVE,THIRDS",-76.478271,38.328408,Y,182.56,738791,168,PATUXENT RIVER SOUTH OF ST. LEONARD CREEK,,,,PATUXENT RIVER
LPXBI0,MD,CA,LOWER PATUXENT RIVER,PAXMH,BACK OF ISLAND,,BACK OF SOLOMONS,-76.460314,38.318606,Y,97.7,395379,168,PATUXENT RIVER SOUTH OF ST. LEONARD CREEK,,,Yes,PATUXENT RIVER
LPXBW0,MD,SM,LOWER PATUXENT RIVER,PAXMH,BOB WISE,,,-76.489146,38.328036,Y,54.82,221846,168,PATUXENT RIVER SOUTH OF ST. LEONARD CREEK,,,,PATUXENT RIVER
LPXCM0,MD,SM,LOWER PATUXENT RIVER,CB5MH,CARROLL MUDS,,"CARROL BANKS,CARROL MUDS,CARROLL BAR",-76.409319,38.311658,Y,367.08,1485535,229,CHESAPEAKE BAY SOUTH OF COVE POINT AND WEST OF SHIP CHANNEL,,,,PATUXENT RIVER
LPXCT0,MD,CA,LOWER PATUXENT RIVER,PAXMH,CHERRY TREE,,SOLOMONS ISLAND,-76.449767,38.319544,Y,21.18,85714,168,PATUXENT RIVER SOUTH OF ST. LEONARD CREEK,,,,PATUXENT RIVER
LPXDP0,MD,SM,LOWER PATUXENT RIVER,PAXMH,DEEP POINT MUD,,,-76.43233,38.303302,Y,228.13,923214,168,PATUXENT RIVER SOUTH OF ST. LEONARD CREEK,,,,PATUXENT RIVER
LPXGO0,MD,SM,LOWER PATUXENT RIVER,PAXMH,GOODWIN,,,-76.468364,38.309148,Y,7.22,29223,168,PATUXENT RIVER SOUTH OF ST. LEONARD CREEK,,,,PATUXENT RIVER
LPXHE0,MD,CA,LOWER PATUXENT RIVER,PAXMH,HELLEN,,,-76.487946,38.361922,Y,223,902444,168,PATUXENT RIVER SOUTH OF ST. LEONARD CREEK,,,,PATUXENT RIVER
LPXHH0,MD,CA,LOWER PATUXENT RIVER,PAXMH,HUNGERFORD HOLLOW,,HUNGERFORD BAR,-76.479873,38.338405,Y,66.1,267512,168,PATUXENT RIVER SOUTH OF ST. LEONARD CREEK,,,,PATUXENT RIVER
LPXHN0,MD,SM,LOWER PATUXENT RIVER,PAXMH,HAWKS NEST,,,-76.492688,38.344362,Y,323.35,1308545,168,PATUXENT RIVER SOUTH OF ST. LEONARD CREEK,,,,PATUXENT RIVER
LPXKE0,MD,,LOWER PATUXENT RIVER,PAXMH,KEMP'S MINI REEF,,,-76.5154,38.332617,,0.0012,,168,PATUXENT RIVER SOUTH OF ST. LEONARD CREEK,Sanctuary,,,PATUXENT RIVER
LPXLG0,MD,SM,LOWER PATUXENT RIVER,PAXMH,LA GRANDE,,GREEN HOLLY,-76.457705,38.299381,Y,143.57,581009,168,PATUXENT RIVER SOUTH OF ST. LEONARD CREEK,,,,PATUXENT RIVER
LPXLL0,MD,CA,LOWER PATUXENT RIVER,PAXMH,LIGHT HOUSE LUMP,,,-76.424833,38.315336,Y,36.81,148972,168,PATUXENT RIVER SOUTH OF ST. LEONARD CREEK,,,,PATUXENT RIVER
LPXMI0,MD,SM,LOWER PATUXENT RIVER,PAXMH,MILLSTONE,,,-76.43793,38.298255,Y,260.02,1052282,168,PATUXENT RIVER SOUTH OF ST. LEONARD CREEK,,,,PATUXENT RIVER
LPXOL0,MD,CA,LOWER PATUXENT RIVER,CB5MH,OLD LUMP,,,-76.419243,38.317907,Y,14.65,59293,229,CHESAPEAKE BAY SOUTH OF COVE POINT AND WEST OF SHIP CHANNEL,,,,PATUXENT RIVER
LPXSH0,MD,CA,LOWER PATUXENT RIVER,PAXMH,SHELL PILE,,SWELL PILE,-76.453647,38.321572,Y,4,16168,168,PATUXENT RIVER SOUTH OF ST. LEONARD CREEK,,,,PATUXENT RIVER
LPXSL0,MD,CA,LOWER PATUXENT RIVER,PAXMH,SANDY POINT LUMPS,,SANDY POINT,-76.447454,38.313386,Y,73.27,296521,168,PATUXENT RIVER SOUTH OF ST. LEONARD CREEK,,,,PATUXENT RIVER
LPXSM0,MD,CA,LOWER PATUXENT RIVER,PAXMH,SOUTHEAST MIDDLEGROUND,,MIDDLEGROUND,-76.438065,38.316756,Y,280.72,1136026,168,PATUXENT RIVER SOUTH OF ST. LEONARD CREEK,,,,PATUXENT RIVER
LPXSP0,MD,SM,LOWER PATUXENT RIVER,PAXMH,SPENCERS,,POINT PATIENCE,-76.479979,38.324357,Y,80.02,323845,168,PATUXENT RIVER SOUTH OF ST. LEONARD CREEK,,,,PATUXENT RIVER
LPXSW0,MD,CA,LOWER PATUXENT RIVER,PAXMH,SWASH,,DRUM POINT,-76.445677,38.322094,Y,16.07,65041,168,PATUXENT RIVER SOUTH OF ST. LEONARD CREEK,,,,PATUXENT RIVER
LPXTC0,MD,SM,LOWER PATUXENT RIVER,PAXMH,TOWN CREEK,,SEVEN GABLES,-76.475161,38.316893,Y,34.75,140641,168,PATUXENT RIVER SOUTH OF ST. LEONARD CREEK,,,,PATUXENT RIVER
LSMCA0,MD,SM,LOWER ST. MARYS RIVER,POTMH,CARTHAGENA CREEK,,SMITHS HOLLOW,-76.46045,38.152497,Y,43.66,176684,078,ST. MARYS RIVER,,,,ST. MARYS RIVER
LSMCC0,MD,SM,LOWER ST. MARYS RIVER,POTMH,CHICKEN COCK,,GUM EDGE,-76.433951,38.116253,Y,139.45,564348,078,ST. MARYS RIVER,,Yes,Yes,ST. MARYS RIVER
LSMCH0,MD,SM,LOWER ST. MARYS RIVER,POTMH,CHERRY,,CHERRY FIELD POINT,-76.463073,38.12553,Y,265.75,1075466,078,ST. MARYS RIVER,,,,ST. MARYS RIVER
LSMCO0,MD,SM,LOWER ST. MARYS RIVER,POTMH,COOPER CREEK,,,-76.456667,38.165867,Y,33.69,136349,078,ST. MARYS RIVER,,,,ST. MARYS RIVER
LSMCP0,MD,SM,LOWER ST. MARYS RIVER,POTMH,COPPAGE,,WINDMILL,-76.451397,38.161551,Y,56.27,227724,078,ST. MARYS RIVER,,,,ST. MARYS RIVER
LSMED0,MD,SM,LOWER ST. MARYS RIVER,POTMH,EDMUND,,"EDMUND POINT,EDWARDS POINT,STREAMS END",-76.457262,38.137377,Y,60.62,245308,078,ST. MARYS RIVER,,,,ST. MARYS RIVER
LSMFO0,MD,SM,LOWER ST. MARYS RIVER,POTMH,FORT,,,-76.439986,38.129795,Y,98.44,398392,078,ST. MARYS RIVER,,,,ST. MARYS RIVER
LSMGO0,MD,SM,LOWER ST. MARYS RIVER,POTMH,GOAD,,"CHERRY FIELD HOUSE,GRAVEYARD,GRAVEYARD POINT,OLD HOUSE POINT",-76.45988,38.143232,Y,89.42,361852,078,ST. MARYS RIVER,,,,ST. MARYS RIVER
LSMIN0,MD,SM,LOWER ST. MARYS RIVER,POTMH,ST. INIGOES NORTH,,,-76.422548,38.165935,Y,9.96,40289,078,ST. MARYS RIVER,,,,ST. MARYS RIVER
LSMIS0,MD,SM,LOWER ST. MARYS RIVER,POTMH,ST. INIGOES SOUTH,,"CHURCH COVE,DUTCHMAN POINT,NICKS BAR",-76.420911,38.163712,Y,9.79,39614,078,ST. MARYS RIVER,,,,ST. MARYS RIVER
LSMJO0,MD,SM,LOWER ST. MARYS RIVER,POTMH,JONES,,,-76.427406,38.159753,Y,13.54,54811,078,ST. MARYS RIVER,,,,ST. MARYS RIVER
LSMKE0,MD,SM,LOWER ST. MARYS RIVER,POTMH,KENNEDY,,POPLAR POINT,-76.433564,38.158327,Y,13.22,53501,078,ST. MARYS RIVER,,,,ST. MARYS RIVER
LSMLH0,MD,SM,LOWER ST. MARYS RIVER,POTMH,LANGLEY HOLLOW,,"FORT POINT,NAVY BASE,WEBSTER FIELD",-76.438844,38.142491,Y,92.07,372611,078,ST. MARYS RIVER,,,,ST. MARYS RIVER
LSMMC0,MD,SM,LOWER ST. MARYS RIVER,POTMH,MOUTH OF CREEK,,,-76.462156,38.112555,Y,178.22,721241,177,POTOMAC RIVER SOUTH OF A LINE BETWEEN PINEY POINT AND RAGGED POINT,,,,ST. MARYS RIVER
LSMML0,MD,SM,LOWER ST. MARYS RIVER,POTMH,MIDDLEGROUND LUMP,,,-76.449213,38.129713,Y,10.57,42790,078,ST. MARYS RIVER,,,,ST. MARYS RIVER
LSMPR0,MD,SM,LOWER ST. MARYS RIVER,POTMH,PRIEST,,PRIEST POINT,-76.442207,38.149612,Y,74.85,302894,078,ST. MARYS RIVER,,,,ST. MARYS RIVER
LSMRH0,MD,SM,LOWER ST. MARYS RIVER,POTMH,ROSECROFT HOLLOW,,ROSECROFT SHORE,-76.440814,38.16364,Y,40.97,165808,078,ST. MARYS RIVER,,,,ST. MARYS RIVER
LSMRS0,MD,SM,LOWER ST. MARYS RIVER,POTMH,RALEYS SHORE,,,-76.436917,38.155225,Y,27.2,110081,078,ST. MARYS RIVER,,,,ST. MARYS RIVER
LSMSP0,MD,SM,LOWER ST. MARYS RIVER,POTMH,SEDGE POINT,,,-76.42504,38.108753,Y,36.77,148820,078,ST. MARYS RIVER,,,,ST. MARYS RIVER
LSMTC0,MD,SM,LOWER ST. MARYS RIVER,POTMH,THOMPSON CREEK,,THOMPSON SHORE,-76.452132,38.155569,Y,62.82,254237,078,ST. MARYS RIVER,,,,ST. MARYS RIVER
LTCAS0,MD,DO,LITTLE CHOPTANK RIVER,LCHMH,ALONG SHORE,,,-76.25958,38.510525,Y,111.07,449484,053,LITTLE CHOPTANK RIVER,,,,LITTLE CHOPTANK RIVER
LTCBE0,MD,DO,LITTLE CHOPTANK RIVER,LCHMH,BALD EAGLE,,,-76.293459,38.557722,Y,133.98,542200,053,LITTLE CHOPTANK RIVER,,,,LITTLE CHOPTANK RIVER
LTCBG0,MD,DO,LITTLE CHOPTANK RIVER,LCHMH,BRIDGE,,SLAUGHTER CREEK,-76.291455,38.471186,Y,5.28,21382,053,LITTLE CHOPTANK RIVER,,,,LITTLE CHOPTANK RIVER
LTCBP0,MD,DO,LITTLE CHOPTANK RIVER,LCHMH,BARN POINT,,,-76.211841,38.538441,Y,118.92,481266,053,LITTLE CHOPTANK RIVER,,,,LITTLE CHOPTANK RIVER
LTCBR0,MD,DO,LITTLE CHOPTANK RIVER,LCHMH,BRUMELL,,MORRIS NECK POINT,-76.211534,38.554092,Y,178.76,723404,053,LITTLE CHOPTANK RIVER,,,,LITTLE CHOPTANK RIVER
LTCBU0,MD,DO,LITTLE CHOPTANK RIVER,LCHMH,BUTTERPOT,,,-76.230488,38.537422,Y,80.82,327057,053,LITTLE CHOPTANK RIVER,,,,LITTLE CHOPTANK RIVER
LTCCA0,MD,DO,LITTLE CHOPTANK RIVER,LCHMH,CASON,,,-76.245345,38.531022,Y,205.22,830491,053,LITTLE CHOPTANK RIVER,,Yes,Yes,LITTLE CHOPTANK RIVER
LTCCC0,MD,DO,LITTLE CHOPTANK RIVER,LCHMH,CEDAR COVE,,,,,,,,053,LITTLE CHOPTANK RIVER,,,,LITTLE CHOPTANK RIVER
LTCCH0,MD,DO,LITTLE CHOPTANK RIVER,LCHMH,CHERRY ISLAND,,,-76.214829,38.56295,Y,24.38,98662,053,LITTLE CHOPTANK RIVER,,,,LITTLE CHOPTANK RIVER
LTCCI0,MD,DO,LITTLE CHOPTANK RIVER,LCHMH,COW ISLAND,,,-76.298939,38.553505,Y,85.34,345340,053,LITTLE CHOPTANK RIVER,,,,LITTLE CHOPTANK RIVER
LTCCT0,MD,DO,LITTLE CHOPTANK RIVER,LCHMH,CATORS,,,-76.322322,38.507225,Y,68.04,275330,053,LITTLE CHOPTANK RIVER,,,,LITTLE CHOPTANK RIVER
LTCFC0,MD,DO,LITTLE CHOPTANK RIVER,LCHMH,FISHING CREEK,,,-76.201004,38.530273,Y,72.45,293179,053,LITTLE CHOPTANK RIVER,,,,LITTLE CHOPTANK RIVER
LTCGR0,MD,DO,LITTLE CHOPTANK RIVER,LCHMH,GRANGER,,,-76.330024,38.503254,Y,41.64,168501,053,LITTLE CHOPTANK RIVER,,,,LITTLE CHOPTANK RIVER
LTCGV0,MD,DO,LITTLE CHOPTANK RIVER,LCHMH,GRAPEVINE,,DEEP POINT,-76.183584,38.52833,Y,37.96,153637,053,LITTLE CHOPTANK RIVER,,,,LITTLE CHOPTANK RIVER
LTCHE0,MD,DO,LITTLE CHOPTANK RIVER,LCHMH,HENPECK,,,-76.307421,38.508858,Y,90.65,366841,053,LITTLE CHOPTANK RIVER,,,,LITTLE CHOPTANK RIVER
LTCHO0,MD,DO,LITTLE CHOPTANK RIVER,LCHMH,HOOPER,,HOOPERS POINT,-76.275908,38.510637,Y,231.6,937260,053,LITTLE CHOPTANK RIVER,,,,LITTLE CHOPTANK RIVER
LTCHU0,MD,DO,LITTLE CHOPTANK RIVER,LCHMH,HUDSON,,,-76.243679,38.541699,Y,60.18,243553,053,LITTLE CHOPTANK RIVER,,,,LITTLE CHOPTANK RIVER
LTCJO0,MD,DO,LITTLE CHOPTANK RIVER,LCHMH,JONES,,,-76.191855,38.556808,Y,12.02,48633,053,LITTLE CHOPTANK RIVER,,,,LITTLE CHOPTANK RIVER
LTCLC0,MD,DO,LITTLE CHOPTANK RIVER,LCHMH,LITTLE CHOPTANK,,MIDDLES,-76.310116,38.519194,Y,166.59,674168,053,LITTLE CHOPTANK RIVER,,,,LITTLE CHOPTANK RIVER
LTCLP0,MD,DO,LITTLE CHOPTANK RIVER,LCHMH,LITTLE POLLARD,,"POLLARDS, BROOKS CREEK",-76.266305,38.536968,Y,106.77,432074,053,LITTLE CHOPTANK RIVER,,,,LITTLE CHOPTANK RIVER
LTCMA0,MD,DO,LITTLE CHOPTANK RIVER,CB4MH,MARSHALL,,,-76.33393,38.490323,Y,6.69,27064,053,LITTLE CHOPTANK RIVER,,,,LITTLE CHOPTANK RIVER
LTCMP0,MD,DO,LITTLE CHOPTANK RIVER,LCHMH,MCKEILS POINT,,,-76.227227,38.543438,Y,202.9,821093,053,LITTLE CHOPTANK RIVER,,,,LITTLE CHOPTANK RIVER
LTCNA0,MD,DO,LITTLE CHOPTANK RIVER,LCHMH,NINE ACRES,,HOOPERS,-76.296644,38.515977,Y,319.37,1292425,053,LITTLE CHOPTANK RIVER,,,,LITTLE CHOPTANK RIVER
LTCOC0,MD,DO,LITTLE CHOPTANK RIVER,CB4MH,OYSTER CREEK,,,-76.334969,38.493978,Y,4.69,18977,053,LITTLE CHOPTANK RIVER,,,,LITTLE CHOPTANK RIVER
LTCPA0,MD,DO,LITTLE CHOPTANK RIVER,LCHMH,PATTISON,,DRUM POINT,-76.179414,38.563016,Y,7.87,31867,053,LITTLE CHOPTANK RIVER,,,,LITTLE CHOPTANK RIVER
LTCPH0,MD,DO,LITTLE CHOPTANK RIVER,LCHMH,PEANUT HILL,,ABBOTTS,-76.314932,38.543252,Y,313.73,1269613,053,LITTLE CHOPTANK RIVER,,,,LITTLE CHOPTANK RIVER
LTCRF0,MD,DO,LITTLE CHOPTANK RIVER,LCHMH,RAGGED POINT FLATS,,,-76.2875,38.551301,Y,234.51,949026,053,LITTLE CHOPTANK RIVER,,,,LITTLE CHOPTANK RIVER
LTCRO0,MD,DO,LITTLE CHOPTANK RIVER,LCHMH,ROSS,,,-76.24734,38.552314,Y,35.66,144303,053,LITTLE CHOPTANK RIVER,,,,LITTLE CHOPTANK RIVER
LTCRP0,MD,DO,LITTLE CHOPTANK RIVER,LCHMH,RAGGED POINT,,RAGGED POINT HOLLOW,-76.295802,38.533805,Y,651.75,2637538,053,LITTLE CHOPTANK RIVER,,Yes,Yes,LITTLE CHOPTANK RIVER
LTCSA0,MD,DO,LITTLE CHOPTANK RIVER,LCHMH,SALTWORK,,SALTWORKS,-76.207473,38.533622,Y,33.84,136947,053,LITTLE CHOPTANK RIVER,,,,LITTLE CHOPTANK RIVER
LTCSC0,MD,DO,LITTLE CHOPTANK RIVER,LCHMH,SLAUGHTER CREEK,,"SHELL BANK,SHELL ROCK",-76.272251,38.504558,Y,117.74,476460,053,LITTLE CHOPTANK RIVER,,,,LITTLE CHOPTANK RIVER
LTCSU0,MD,DO,LITTLE CHOPTANK RIVER,LCHMH,SUSQUEHANNA,,,-76.257902,38.523568,Y,190.78,772059,053,LITTLE CHOPTANK RIVER,,,,LITTLE CHOPTANK RIVER
LTCTO0,MD,DO,LITTLE CHOPTANK RIVER,LCHMH,TOWN,,TOWN POINT,-76.218376,38.547303,Y,87.05,352268,053,LITTLE CHOPTANK RIVER,,,,LITTLE CHOPTANK RIVER
LTCTS0,MD,DO,LITTLE CHOPTANK RIVER,LCHMH,TOBACCO STICK,,,-76.231436,38.528896,Y,209.25,846811,053,LITTLE CHOPTANK RIVER,,,,LITTLE CHOPTANK RIVER
LTCWS0,MD,DO,LITTLE CHOPTANK RIVER,LCHMH,WOOLFORD SHOAL,,,-76.23601667,38.52933333,,,,053,LITTLE CHOPTANK RIVER,,,,LITTLE CHOPTANK RIVER
LTSBT0,MD,SO,LOWER TANGIER SOUND,TANMH,BIG THOROFARE,,SMITH ISLAND THOROUGHFARE,-76.027089,38.003452,,1143.05,4625745,192,TANGIER SOUND SOUTH OF WENONA,,,,TANGIER SOUND
LTSCS0,MD,SO,LOWER TANGIER SOUND,TANMH,CEDAR STRAITS,,,-75.894078,37.917012,,328.56,1329615,192,TANGIER SOUND SOUTH OF WENONA,,,,TANGIER SOUND
LTSDB0,MD,SO,LOWER TANGIER SOUND,TANMH,DITCH BANK,,,-75.951759,37.974296,,78.29,316815,192,TANGIER SOUND SOUTH OF WENONA,,,,TANGIER SOUND
LTSDR0,MD,SO,LOWER TANGIER SOUND,TANMH,DRUM,,,-75.966663,37.987704,,1763.39,7136202,192,TANGIER SOUND SOUTH OF WENONA,,,,TANGIER SOUND
LTSEP0,MD,SO,LOWER TANGIER SOUND,TANMH,EASTER'S POINT,,,-76.014167,37.991667,,,,192,TANGIER SOUND SOUTH OF WENONA,,,,TANGIER SOUND
LTSFC0,MD,SO,LOWER TANGIER SOUND,TANMH,FISHING CREEK,,,-75.896523,37.931282,,62.32,252211,192,TANGIER SOUND SOUTH OF WENONA,,,,TANGIER SOUND
LTSFI0,MD,SO,LOWER TANGIER SOUND,TANMH,FOX ISLAND,,,-75.939111,37.912658,Y,356.86,1444151,192,TANGIER SOUND SOUTH OF WENONA,,,,TANGIER SOUND
LTSGP0,MD,SO,LOWER TANGIER SOUND,TANMH,GREAT POINT,,,-75.894087,37.955199,,168.11,680310,192,TANGIER SOUND SOUTH OF WENONA,,,,TANGIER SOUND
LTSGR0,MD,SO,LOWER TANGIER SOUND,TANMH,GREAT ROCK,,,-75.929801,37.935255,Y,1517.68,6141814,192,TANGIER SOUND SOUTH OF WENONA,,,Yes,TANGIER SOUND
LTSOI1,MD,SO,LOWER TANGIER SOUND,TANMH,OLD ISLAND ADD 1,ADDITION 1,OLD ISLAND,-75.919112,37.957987,,394.83,1597821,192,TANGIER SOUND SOUTH OF WENONA,,,,TANGIER SOUND
LTSOW0,MD,SO,LOWER TANGIER SOUND,TANMH,OLD WOMANS LEG,,,-75.961124,37.963009,,474.46,1920082,192,TANGIER SOUND SOUTH OF WENONA,,Yes,,TANGIER SOUND
LTSPA1,MD,SO,LOWER TANGIER SOUND,TANMH,PAUL ADD 1,ADDITION 1,,-75.935802,37.982412,,263.23,1065244,192,TANGIER SOUND SOUTH OF WENONA,,,,TANGIER SOUND
LTSPH0,MD,SO,LOWER TANGIER SOUND,TANMH,PHILIBYS,,,-75.916857,37.9548,Y,306.1,1238743,192,TANGIER SOUND SOUTH OF WENONA,,,,TANGIER SOUND
LTSSC0,MD,SO,LOWER TANGIER SOUND,TANMH,SHANKS CREEK,,,-76.039942,37.962761,,175.58,710564,192,TANGIER SOUND SOUTH OF WENONA,,,,TANGIER SOUND
LTSTC0,MD,SO,LOWER TANGIER SOUND,TANMH,TWITCH COVE,,BIG ISLAND,-75.982194,37.970068,,1462.26,5917576,192,TANGIER SOUND SOUTH OF WENONA,,,,TANGIER SOUND
LTSTY0,MD,SO,LOWER TANGIER SOUND,TANMH,TYLERS CREEK,,,-76.019277,37.962582,,370.47,1499242,192,TANGIER SOUND SOUTH OF WENONA,,,,TANGIER SOUND
MARCO0,MD,SO,MANOKIN RIVER,MANMH,CORMAL,,,-75.839877,38.131923,Y,358.68,1451518,057,MANOKIN RIVER,,,,MANOKIN RIVER
MARCP0,MD,SO,MANOKIN RIVER,TANMH,COW PEN,,MARSHY ISLAND,-75.898094,38.084863,,108.98,441037,057,MANOKIN RIVER,,,,MANOKIN RIVER
MARDP0,MD,SO,MANOKIN RIVER,MANMH,DRUM POINT,,,-75.883257,38.101055,Y,1520.18,6151955,057,MANOKIN RIVER,,,Yes,MANOKIN RIVER
MARDP1,MD,SO,MANOKIN RIVER,MANMH,DRUM POINT ADD 1,ADDITION 1,,-75.879525,38.092719,,157.4,636964,057,MANOKIN RIVER,,,,MANOKIN RIVER
MARDP2,MD,SO,MANOKIN RIVER,MANMH,DRUM POINT ADD 2,ADDITION 2,,-75.854053,38.112495,,291.91,1181321,057,MANOKIN RIVER,,,,MANOKIN RIVER
MARGC0,MD,SO,MANOKIN RIVER,MANMH,GOOSE CREEK,,,-75.867611,38.09535,,509.17,2060520,057,MANOKIN RIVER,,,,MANOKIN RIVER
MARGE0,MD,SO,MANOKIN RIVER,MANMH,GEORGES,,NARROWS,-75.844392,38.136358,Y,576.43,2332738,057,MANOKIN RIVER,,Yes,Yes,MANOKIN RIVER
MARGQ0,MD,SO,MANOKIN RIVER,MANMH,GEANQUAKIN,,,-75.840024,38.144385,,225.69,913338,057,MANOKIN RIVER,,,,MANOKIN RIVER
MARLD0,MD,SO,MANOKIN RIVER,TANMH,LITTLE DEAL ISLAND,,,-75.939754,38.11166,,357.06,1444988,057,MANOKIN RIVER,,,,MANOKIN RIVER
MARLS0,MD,SO,MANOKIN RIVER,MANMH,LAWS THOROFARE SOUTH,,,-75.913746,38.135596,,888.97,3597516,057,MANOKIN RIVER,,,,MANOKIN RIVER
MARLT0,MD,SO,MANOKIN RIVER,MANMH,LOWER THOROFARE,,,-75.930836,38.12337,,284.1,1149699,057,MANOKIN RIVER,,,,MANOKIN RIVER
MARMC0,MD,SO,MANOKIN RIVER,MANMH,MINE CREEK,,,-75.8658,38.079401,,310.16,1255153,057,MANOKIN RIVER,,,,MANOKIN RIVER
MARMI0,MD,SO,MANOKIN RIVER,MANMH,MARSH ISLAND,,,-75.890074,38.140296,,629.39,2547036,057,MANOKIN RIVER,,,,MANOKIN RIVER
MARMY0,MD,SO,MANOKIN RIVER,MANMH,MARSHY ISLAND,,WIDDIES HILL,-75.891221,38.106346,Y,1686.96,6826888,057,MANOKIN RIVER,,,,MANOKIN RIVER
MARPI0,MD,SO,MANOKIN RIVER,MANMH,PINEY ISLAND,,,-75.901026,38.10395,,2194.33,8880153,057,MANOKIN RIVER,,,,MANOKIN RIVER
MARPP0,MD,SO,MANOKIN RIVER,TANMH,PRICKLY POINT,,,-75.89657,38.081363,Y,172.84,699445,057,MANOKIN RIVER,,,,MANOKIN RIVER
MARPS0,MD,SO,MANOKIN RIVER,MANMH,PINEY ISLAND SWASH,,PINEY ISLAND DEEP,-75.912508,38.12019,Y,945.27,3825366,057,MANOKIN RIVER,,,,MANOKIN RIVER
MARSP0,MD,SO,MANOKIN RIVER,MANMH,SANDY POINT,,,-75.80749,38.137112,Y,49.58,200636,057,MANOKIN RIVER,,,,MANOKIN RIVER
MARST0,MD,SO,MANOKIN RIVER,MANMH,ST. PIERRE,,,-75.872454,38.133893,,973.72,3940525,057,MANOKIN RIVER,,,,MANOKIN RIVER
MARTC0,MD,SO,MANOKIN RIVER,MANMH,TEAGUE CREEK,,,-75.839029,38.120055,,43.99,178006,057,MANOKIN RIVER,,,,MANOKIN RIVER
MCBMC0,MD,,CHESAPEAKE BAY - MAIN STEM,,MERRILL CENTER BREAKWATERS,,,-76.46148333,38.93121667,,,,027,CHESAPEAKE BAY NORTH OF COVE POINT TO AREA 127,,,,MID-BAY WEST
MCRBC0,MD,,MIDDLE CHOPTANK RIVER,,BOONES CREEK,,,-76.164717,38.67285,,0.018,,137,CHOPTANK RIVER BELOW CASTLEHAVEN,,,,CHOPTANK RIVER
MCRBE0,MD,TA,MIDDLE CHOPTANK RIVER,CHOMH2,BEACONS,,,-76.123082,38.627518,Y,277.76,1124043,237,CHOPTANK RIVER SOUTH OF RTE 50 BRIDGE TO CASTLEHAVEN,,,,CHOPTANK RIVER
MCRBE1,MD,TA,MIDDLE CHOPTANK RIVER,CHOMH2,BEACONS ADD 1,ADDITION 1,,-76.138431,38.635825,,178.25,721368,237,CHOPTANK RIVER SOUTH OF RTE 50 BRIDGE TO CASTLEHAVEN,,,,CHOPTANK RIVER
MCRBS0,MD,TA,MIDDLE CHOPTANK RIVER,CHOMH1,BACK SHORE,,EMERSONS,-76.164512,38.649614,Y,1282.68,5190828,137,CHOPTANK RIVER BELOW CASTLEHAVEN,,,,CHOPTANK RIVER
MCRCH0,MD,DO,MIDDLE CHOPTANK RIVER,CHOMH2,CASTLE HAVEN CREEK,,,-76.164015,38.620911,Y,114.7,464167,237,CHOPTANK RIVER SOUTH OF RTE 50 BRIDGE TO CASTLEHAVEN,,,,CHOPTANK RIVER
MCRCH1,MD,DO,MIDDLE CHOPTANK RIVER,CHOMH2,CASTLE HAVEN CREEK ADD 1,ADDITION 1,,-76.156538,38.620297,,182.58,738893,237,CHOPTANK RIVER SOUTH OF RTE 50 BRIDGE TO CASTLEHAVEN,,,,CHOPTANK RIVER
MCRCO0,MD,DO,MIDDLE CHOPTANK RIVER,CHOMH2,COMMANDER,,,-76.119281,38.586037,Y,5.03,20367,237,CHOPTANK RIVER SOUTH OF RTE 50 BRIDGE TO CASTLEHAVEN,,,,CHOPTANK RIVER
MCRCP0,MD,TA,MIDDLE CHOPTANK RIVER,CHOMH2,CHLORA POINT,,,-76.147744,38.629444,Y,307.87,1245910,237,CHOPTANK RIVER SOUTH OF RTE 50 BRIDGE TO CASTLEHAVEN,,,,CHOPTANK RIVER
MCRCP1,MD,TA,MIDDLE CHOPTANK RIVER,CHOMH2,CHLORA POINT ADD 1,ADDITION 1,,-76.13858,38.625653,,83.35,337312,237,CHOPTANK RIVER SOUTH OF RTE 50 BRIDGE TO CASTLEHAVEN,,,,CHOPTANK RIVER
MCRDI0,MD,TA,MIDDLE CHOPTANK RIVER,CHOMH2,DICKINSON,,,-76.093993,38.607559,Y,465.01,1881810,237,CHOPTANK RIVER SOUTH OF RTE 50 BRIDGE TO CASTLEHAVEN,,,,CHOPTANK RIVER
MCRDI1,MD,TA,MIDDLE CHOPTANK RIVER,CHOMH2,DICKINSON ADD 1,ADDITION 1,,-76.094435,38.613648,,461.71,1868468,237,CHOPTANK RIVER SOUTH OF RTE 50 BRIDGE TO CASTLEHAVEN,,,,CHOPTANK RIVER
MCRGM0,MD,DO,MIDDLE CHOPTANK RIVER,CHOMH2,GREEN MARSH,,,-76.070575,38.58393,Y,215.98,874022,237,CHOPTANK RIVER SOUTH OF RTE 50 BRIDGE TO CASTLEHAVEN,,,,CHOPTANK RIVER
MCRGM1,MD,DO,MIDDLE CHOPTANK RIVER,CHOMH2,GREEN MARSH ADD 1,ADDITION 1,,-76.072427,38.579552,,39.19,158577,237,CHOPTANK RIVER SOUTH OF RTE 50 BRIDGE TO CASTLEHAVEN,,,,CHOPTANK RIVER
MCRGM2,MD,DO,MIDDLE CHOPTANK RIVER,CHOMH2,GREEN MARSH ADD 2,ADDITION 2,,-76.078939,38.589474,,96.95,392338,237,CHOPTANK RIVER SOUTH OF RTE 50 BRIDGE TO CASTLEHAVEN,,,,CHOPTANK RIVER
MCRHA0,MD,DO,MIDDLE CHOPTANK RIVER,CHOMH2,HAMBROOKS,,,-76.081253,38.598272,Y,70.99,287284,237,CHOPTANK RIVER SOUTH OF RTE 50 BRIDGE TO CASTLEHAVEN,,,,CHOPTANK RIVER
MCRHA1,MD,DO,MIDDLE CHOPTANK RIVER,CHOMH2,HAMBROOKS ADD 1,ADDITION 1,,-76.08676,38.599236,,91.38,369798,237,CHOPTANK RIVER SOUTH OF RTE 50 BRIDGE TO CASTLEHAVEN,,,,CHOPTANK RIVER
MCRHO0,MD,TA,MIDDLE CHOPTANK RIVER,CHOMH1,HOPKINS,,,-76.157941,38.659149,Y,45,182111,137,CHOPTANK RIVER BELOW CASTLEHAVEN,,,,CHOPTANK RIVER
MCRHP0,MD,DO,MIDDLE CHOPTANK RIVER,CHOMH2,HORN POINT,,,-76.142429,38.606517,Y,145.46,588668,237,CHOPTANK RIVER SOUTH OF RTE 50 BRIDGE TO CASTLEHAVEN,,,,CHOPTANK RIVER
MCRHP1,MD,DO,MIDDLE CHOPTANK RIVER,CHOMH2,HORN POINT ADD 1,ADDITION 1,,-76.155813,38.606437,,823,3330543,237,CHOPTANK RIVER SOUTH OF RTE 50 BRIDGE TO CASTLEHAVEN,,,,CHOPTANK RIVER
MCRHW0,MD,TA,MIDDLE CHOPTANK RIVER,CHOMH2,HOWELLS POINT,,"HAILS POINT,HALES POINT",-76.119511,38.610151,Y,474.66,1920900,237,CHOPTANK RIVER SOUTH OF RTE 50 BRIDGE TO CASTLEHAVEN,,,,CHOPTANK RIVER
MCRHW1,MD,TA,MIDDLE CHOPTANK RIVER,CHOMH2,HOWELLS POINT ADD 1,ADDITION 1,,-76.105255,38.606252,,138.33,559807,237,CHOPTANK RIVER SOUTH OF RTE 50 BRIDGE TO CASTLEHAVEN,,,,CHOPTANK RIVER
MCRHW2,MD,TA,MIDDLE CHOPTANK RIVER,CHOMH2,HOWELLS POINT ADD 2,ADDITION 2,,-76.121911,38.618994,,158.8,642638,237,CHOPTANK RIVER SOUTH OF RTE 50 BRIDGE TO CASTLEHAVEN,,,,CHOPTANK RIVER
MCRIC0,MD,TA,MIDDLE CHOPTANK RIVER,CHOMH1,ISLAND CREEK,,ADKINSON,-76.141621,38.66393,Y,138.7,561286,137,CHOPTANK RIVER BELOW CASTLEHAVEN,,,,CHOPTANK RIVER
MCRKI0,MD,TA,MIDDLE CHOPTANK RIVER,CHOMH2,KIRBY,,,-76.075244,38.600186,Y,300.86,1217556,237,CHOPTANK RIVER SOUTH OF RTE 50 BRIDGE TO CASTLEHAVEN,,,,CHOPTANK RIVER
MCRKI1,MD,TA,MIDDLE CHOPTANK RIVER,CHOMH2,KIRBY ADD 1,ADDITION 1,,-76.064838,38.592729,,103.41,418478,237,CHOPTANK RIVER SOUTH OF RTE 50 BRIDGE TO CASTLEHAVEN,,,,CHOPTANK RIVER
MCRKI2,MD,TA,MIDDLE CHOPTANK RIVER,CHOMH2,KIRBY ADD 2,ADDITION 2,,-76.078818,38.606226,,77.66,314275,237,CHOPTANK RIVER SOUTH OF RTE 50 BRIDGE TO CASTLEHAVEN,,,,CHOPTANK RIVER
MCRLA0,MD,TA,MIDDLE CHOPTANK RIVER,CHOMH2,LATRAPPE,,LA TRAPPE,-76.114037,38.634361,Y,59.83,242121,237,CHOPTANK RIVER SOUTH OF RTE 50 BRIDGE TO CASTLEHAVEN,,,,CHOPTANK RIVER
MCRLB0,MD,,MIDDLE CHOPTANK RIVER,,LOWER BAR,,,-76.105,38.5,,0.25,,137,CHOPTANK RIVER BELOW CASTLEHAVEN,,,,CHOPTANK RIVER
MCRLE0,MD,DO,MIDDLE CHOPTANK RIVER,CHOMH2,LECOMPTE,,,-76.14848,38.620044,Y,277.37,1122457,237,CHOPTANK RIVER SOUTH OF RTE 50 BRIDGE TO CASTLEHAVEN,,,,CHOPTANK RIVER
MCRLE1,MD,DO,MIDDLE CHOPTANK RIVER,CHOMH2,LECOMPTE ADD 1,ADDITION 1,,-76.140584,38.613844,,73.48,297343,237,CHOPTANK RIVER SOUTH OF RTE 50 BRIDGE TO CASTLEHAVEN,,,,CHOPTANK RIVER
MCRMA0,MD,TA,MIDDLE CHOPTANK RIVER,CHOMH1,MATTHEWS,,,-76.130588,38.671101,Y,15.51,62756,137,CHOPTANK RIVER BELOW CASTLEHAVEN,,,,CHOPTANK RIVER
MCRMB0,MD,,MIDDLE CHOPTANK RIVER,,MIDDLE BAR,,,-76.106804,38.643511,,,,137,CHOPTANK RIVER BELOW CASTLEHAVEN,,,,CHOPTANK RIVER
MCRSC0,MD,TA,MIDDLE CHOPTANK RIVER,CHOMH2,SCRAPING LINE,,,-76.060746,38.586601,Y,78.46,317499,237,CHOPTANK RIVER SOUTH OF RTE 50 BRIDGE TO CASTLEHAVEN,,,,CHOPTANK RIVER
MCRSC1,MD,TA,MIDDLE CHOPTANK RIVER,CHOMH2,SCRAPING LINE ADD 1,ADDITION 1,,-76.056646,38.583954,,243.54,985581,237,CHOPTANK RIVER SOUTH OF RTE 50 BRIDGE TO CASTLEHAVEN,,,,CHOPTANK RIVER
MCRSH0,MD,DO,MIDDLE CHOPTANK RIVER,CHOMH2,SANDY HILL,,"CAMBRIDGE,SANDY POINT",-76.117063,38.596414,Y,491.97,1990934,237,CHOPTANK RIVER SOUTH OF RTE 50 BRIDGE TO CASTLEHAVEN,,Yes,Yes,CHOPTANK RIVER
MCRSH1,MD,DO,MIDDLE CHOPTANK RIVER,CHOMH2,SANDY HILL ADD 1,ADDITION 1,,-76.130307,38.599031,,314.38,1272270,237,CHOPTANK RIVER SOUTH OF RTE 50 BRIDGE TO CASTLEHAVEN,,,,CHOPTANK RIVER
MCRSL0,MD,DO,MIDDLE CHOPTANK RIVER,CHOMH2,SANDY HILL LUMPS,,,-76.09994,38.593575,Y,18.96,76713,237,CHOPTANK RIVER SOUTH OF RTE 50 BRIDGE TO CASTLEHAVEN,,,,CHOPTANK RIVER
MCRSL1,MD,DO,MIDDLE CHOPTANK RIVER,CHOMH2,SANDY HILL LUMPS ADD 1,ADDITION 1,,-76.104969,38.591511,,180.08,728746,237,CHOPTANK RIVER SOUTH OF RTE 50 BRIDGE TO CASTLEHAVEN,,,,CHOPTANK RIVER
MCRTB0,MD,DO,MIDDLE CHOPTANK RIVER,CHOMH2,TURTLE BACK,,TURKLE BACK,-76.094116,38.599092,Y,73.54,297620,237,CHOPTANK RIVER SOUTH OF RTE 50 BRIDGE TO CASTLEHAVEN,,,,CHOPTANK RIVER
MCRTB1,MD,DO,MIDDLE CHOPTANK RIVER,CHOMH2,TURTLE BACK ADD 1,ADDITION 1,,-76.09798,38.596421,,139,562500,237,CHOPTANK RIVER SOUTH OF RTE 50 BRIDGE TO CASTLEHAVEN,,,,CHOPTANK RIVER
MCRUB0,MD,,MIDDLE CHOPTANK RIVER,,UPPER BAR,,,-76.105983,38.64515,,0.25,,237,CHOPTANK RIVER SOUTH OF RTE 50 BRIDGE TO CASTLEHAVEN,,,,CHOPTANK RIVER
MCRWI0,MD,TA,MIDDLE CHOPTANK RIVER,CHOMH1,WILLIS,,,-76.153222,38.663784,Y,9.46,38284,137,CHOPTANK RIVER BELOW CASTLEHAVEN,,,,CHOPTANK RIVER
MGRBL0,MD,AA,MAGOTHY RIVER,MAGMH,BLACK,,PODICKORY,-76.472979,39.064915,Y,24.91,100818,055,MAGOTHY RIVER,,,,MAGOTHY RIVER
MGRCN0,MD,AA,MAGOTHY RIVER,MAGMH,CHEST NECK POINT,,,-76.49398077,39.07216582,,0.806842522,3265.175848,055,MAGOTHY RIVER,,,,MAGOTHY RIVER
MGRDH0,MD,AA,MAGOTHY RIVER,MAGMH,DOBBINS HILL,,,-76.45771933,39.07181694,N,3.156278171,12773.00461,055,MAGOTHY RIVER,,,,MAGOTHY RIVER
MGRDO0,MD,AA,MAGOTHY RIVER,MAGMH,DOBBINS,,,-76.457723,39.071815,,,,055,MAGOTHY RIVER,,,,MAGOTHY RIVER
MGRPA0,MD,AA,MAGOTHY RIVER,MAGMH,PARK,,,-76.481268,39.076121,Y,33.44,135342,055,MAGOTHY RIVER,,,,MAGOTHY RIVER
MGRPE0,MD,AA,MAGOTHY RIVER,MAGMH,PERSIMMON,,,-76.440692,39.056183,Y,33.15,134134,055,MAGOTHY RIVER,,,,MAGOTHY RIVER
MGRPH0,MD,AA,MAGOTHY RIVER,MAGMH,PEACH HILL,,,-76.449612,39.082115,Y,21,84997,055,MAGOTHY RIVER,,,,MAGOTHY RIVER
MGRRP0,MD,AA,MAGOTHY RIVER,MAGMH,ROCKY POINT,,,-76.48022167,39.074695,,,,055,MAGOTHY RIVER,,,,MAGOTHY RIVER
MGRSB0,MD,AA,MAGOTHY RIVER,MAGMH,SILLERY BAY,,SILLERY,-76.448006,39.092155,Y,35.05,141848,055,MAGOTHY RIVER,,,,MAGOTHY RIVER
MGRTM0,MD,AA,MAGOTHY RIVER,MAGMH,T. MARSHALL DUER MEMORIAL SANCTUARY REEF,,,-76.494393,39.072516,,,,055,MAGOTHY RIVER,Sanctuary,,,MAGOTHY RIVER
MGRUM0,MD,AA,MAGOTHY RIVER,MAGMH,UMPHASIS,,,-76.483578,39.06743,Y,29.48,119310,055,MAGOTHY RIVER,,,,MAGOTHY RIVER
MGRWE0,MD,AA,MAGOTHY RIVER,MAGMH,WELCH,,,-76.447561,39.074114,Y,50.98,206294,055,MAGOTHY RIVER,,,,MAGOTHY RIVER
MIRAC0,MD,TA,MILES RIVER,EASMH,ASH CRAFT,,,-76.210041,38.794539,Y,54.86,222012,060,MILES RIVER,,,Yes,MILES RIVER
MIRAD0,MD,TA,MILES RIVER,EASMH,ALDRIDGES DISCOVERY,,,-76.244675,38.860367,Y,16.75,67791,060,MILES RIVER,,,,MILES RIVER
MIRBA0,MD,TA,MILES RIVER,EASMH,BARNETT,,,-76.182108,38.763589,Y,28.26,114356,060,MILES RIVER,,,,MILES RIVER
MIRBH0,MD,TA,MILES RIVER,EASMH,BAZZLES HILL,,,-76.19298,38.777144,Y,103.93,420584,060,MILES RIVER,,,,MILES RIVER
MIRBN0,MD,TA,MILES RIVER,EASMH,BOZMAN NECK,,,-76.255569,38.845244,Y,50.01,202364,060,MILES RIVER,,,,MILES RIVER
MIRCO0,MD,QA,MILES RIVER,EASMH,COFFEE,,"CAFFY,CATHYS,HOBBS WOODS,TAFFY",-76.215836,38.861941,Y,582.22,2356165,060,MILES RIVER,,,,MILES RIVER
MIRCX0,MD,TA,MILES RIVER,EASMH,COX,,,-76.154719,38.773134,Y,26.2,106014,060,MILES RIVER,,,,MILES RIVER
MIRDW0,MD,TA,MILES RIVER,EASMH,DEEP WATER POINT,,"DEEP POINT BAR,SHOAL POINT",-76.211497,38.801911,Y,18.86,76306,060,MILES RIVER,,,,MILES RIVER
MIREE0,MD,QA,MILES RIVER,EASMH,EAST END,,,-76.21135,38.832989,Y,66.23,268010,060,MILES RIVER,,,,MILES RIVER
MIRGF0,MD,TA,MILES RIVER,EASMH,GIBSONS FLATS,,WINSLOWS BAY,-76.191666,38.779608,Y,214.22,866900,060,MILES RIVER,,,,MILES RIVER
MIRHA0,MD,TA,MILES RIVER,EASMH,HAMBLETON,,,-76.231922,38.825278,Y,173,700121,060,MILES RIVER,,,,MILES RIVER
MIRHH0,MD,TA,MILES RIVER,EASMH,HAMBLETON HILL,,HAMILTON HILLS,-76.237984,38.838868,Y,220.55,892541,060,MILES RIVER,,,,MILES RIVER
MIRHI0,MD,QA,MILES RIVER,EASMH,HERRING ISLAND,,"MAIN BAR,MAIN POINT",-76.213525,38.841016,Y,214.24,867011,060,MILES RIVER,,,,MILES RIVER
MIRHO0,MD,TA,MILES RIVER,EASMH,HORSESHOE,,WINTER BOTTOM,-76.238039,38.859677,Y,25.69,103950,060,MILES RIVER,,,,MILES RIVER
MIRLP0,MD,TA,MILES RIVER,EASMH,LONG POINT,,"BEACH,LONG POINT BEACH",-76.1782,38.767608,Y,133.6,540673,060,MILES RIVER,,Yes,,MILES RIVER
MIRMM0,MD,,MILES RIVER,EASMH,C-BAYMARITIME MUSEUM MINI REEF,,,-76.221667,38.790833,,0.0012,,060,MILES RIVER,,,,MILES RIVER
MIROO0,MD,TA,MILES RIVER,EASMH,OLD ORCHARD,,"PARROT POINT,PARROTT ISLAND",-76.203827,38.783136,Y,78.81,318953,060,MILES RIVER,,,,MILES RIVER
MIRPT0,MD,QA,MILES RIVER,EASMH,PERSIMMON TREE,,"BENNETTS POINT,BENNETTS POINT STONEPILE,BENNY POINT,CEMENTRY",-76.215738,38.851263,Y,404.66,1637582,060,MILES RIVER,,,,MILES RIVER
MIRSC0,MD,TA,MILES RIVER,EASMH,SCOTLAND,,,-76.212673,38.810721,Y,51.19,207158,060,MILES RIVER,,,,MILES RIVER
MIRSM0,MD,,MILES RIVER,EASMH,ST. MICHAELS,,,-76.207938,38.785832,,,,060,MILES RIVER,Sanctuary,,,MILES RIVER
MIRSP0,MD,TA,MILES RIVER,EASMH,SECOND POINT,,,-76.202183,38.792455,Y,95.95,388298,060,MILES RIVER,,,,MILES RIVER
MIRST0,MD,TA,MILES RIVER,EASMH,SEA TURTLE,,,-76.254087,38.85228,Y,22.97,92956,060,MILES RIVER,,,,MILES RIVER
MIRSY0,MD,TA,MILES RIVER,EASMH,SYCAMORE,,,-76.198986,38.833617,Y,221.16,895008,060,MILES RIVER,,,,MILES RIVER
MIRTB0,MD,TA,MILES RIVER,EASMH,TURTLE BACK,,,-76.236147,38.851683,Y,45.85,185564,060,MILES RIVER,,Yes,Yes,MILES RIVER
MIRTI0,MD,TA,MILES RIVER,EASMH,TIDEMILL,,,-76.221519,38.817424,Y,166.03,671914,060,MILES RIVER,,,,MILES RIVER
MIRWE0,MD,QA,MILES RIVER,EASMH,WEST END,,,-76.222841,38.836114,Y,345.15,1396787,060,MILES RIVER,,,,MILES RIVER
MIRWG0,MD,TA,MILES RIVER,EASMH,WILD GROUND,,,-76.209119,38.821811,Y,222.86,901901,060,MILES RIVER,,,,MILES RIVER
MIRWT0,MD,TA,MILES RIVER,EASMH,WYE TOWN,,WYE TOWN BUOY,-76.199475,38.845386,Y,130.7,528922,060,MILES RIVER,,,,MILES RIVER
MPRBC0,MD,TA,MIDDLE POTOMAC RIVER,POTMH,BLAKE CREEK,,,-76.574939,38.199531,,18.18,73584,277,POTOMAC RIVER SOUTH OF COBB ISLAND TO AREA 177,,,,POTOMAC RIVER NORTHSHORE
MPRBP0,MD,SM,MIDDLE POTOMAC RIVER,POTMH,BILLYS POINT,,COLES POINT,-76.628528,38.155869,,23.07,93362,277,POTOMAC RIVER SOUTH OF COBB ISLAND TO AREA 177,,,,POTOMAC RIVER SOUTHSHORE
MPRCI0,MD,CH,MIDDLE POTOMAC RIVER,POTMH,COBB ISLAND,,,-76.8363,38.243448,,366.17,1481839,277,POTOMAC RIVER SOUTH OF COBB ISLAND TO AREA 177,,,,POTOMAC RIVER NORTHSHORE
MPRCP0,MD,SM,MIDDLE POTOMAC RIVER,POTMH,COLES POINT,,,-76.634021,38.155417,,58.12,235189,277,POTOMAC RIVER SOUTH OF COBB ISLAND TO AREA 177,,,,POTOMAC RIVER SOUTHSHORE
MPRHI0,MD,SM,MIDDLE POTOMAC RIVER,POTMH,HERON ISLAND,,,-76.71441,38.211129,,252.93,1023555,277,POTOMAC RIVER SOUTH OF COBB ISLAND TO AREA 177,,,,POTOMAC RIVER NORTHSHORE
MPRHP0,MD,SM,MIDDLE POTOMAC RIVER,POTMH,HUGGINS POINT,,,-76.690789,38.224679,,112.39,454818,277,POTOMAC RIVER SOUTH OF COBB ISLAND TO AREA 177,,,,POTOMAC RIVER NORTHSHORE
MPRHR0,MD,SM,MIDDLE POTOMAC RIVER,POTMH,HERRING RUN,,,-76.554583,38.180464,,52.5,212465,277,POTOMAC RIVER SOUTH OF COBB ISLAND TO AREA 177,,,,POTOMAC RIVER NORTHSHORE
MPRKH0,MD,SM,MIDDLE POTOMAC RIVER,POTMH,KNOTTS HOLLOW,,,-76.673991,38.226704,,214.39,867602,277,POTOMAC RIVER SOUTH OF COBB ISLAND TO AREA 177,,,,POTOMAC RIVER NORTHSHORE
MPRKI0,MD,SM,MIDDLE POTOMAC RIVER,POTMH,KINGCOPSICO,,,-76.703461,38.163111,,75.83,306873,277,POTOMAC RIVER SOUTH OF COBB ISLAND TO AREA 177,,,,POTOMAC RIVER SOUTHSHORE
MPRLB0,MD,SM,MIDDLE POTOMAC RIVER,POTMH,LINE BAR,,LINE,-76.795884,38.227158,,158.11,639844,277,POTOMAC RIVER SOUTH OF COBB ISLAND TO AREA 177,,,,POTOMAC RIVER NORTHSHORE
MPRNC0,MD,SM,MIDDLE POTOMAC RIVER,POTMH,NOMINI CLIFFS,,,-76.798588,38.177877,,55.7,225393,277,POTOMAC RIVER SOUTH OF COBB ISLAND TO AREA 177,,,,POTOMAC RIVER SOUTHSHORE
MPRPB0,MD,SM,MIDDLE POTOMAC RIVER,POTMH,POSEYS BLUFF,,,-76.655733,38.221204,,66.78,270236,277,POTOMAC RIVER SOUTH OF COBB ISLAND TO AREA 177,,,,POTOMAC RIVER NORTHSHORE
MPRPH0,MD,SM,MIDDLE POTOMAC RIVER,POTMH,PEANUT HILL,,,-76.7778,38.223345,,17.52,70884,277,POTOMAC RIVER SOUTH OF COBB ISLAND TO AREA 177,,,,POTOMAC RIVER NORTHSHORE
MPRPO0,MD,SM,MIDDLE POTOMAC RIVER,POTMH,PEACH ORCHARD,,,-76.666125,38.157047,,39.41,159503,277,POTOMAC RIVER SOUTH OF COBB ISLAND TO AREA 177,,,,POTOMAC RIVER SOUTHSHORE
MPRRP0,MD,SM,MIDDLE POTOMAC RIVER,POTMH,RAGGED POINT,,,-76.602689,38.157352,,49.39,199863,277,POTOMAC RIVER SOUTH OF COBB ISLAND TO AREA 177,,Yes,Yes,POTOMAC RIVER SOUTHSHORE
MPRRP1,MD,SM,MIDDLE POTOMAC RIVER,POTMH,RAGGED POINT ADD 1,ADDITION 1,,-76.606501,38.153257,,246.51,997604,277,POTOMAC RIVER SOUTH OF COBB ISLAND TO AREA 177,,,,POTOMAC RIVER SOUTHSHORE
MPRRR0,MD,SM,MIDDLE POTOMAC RIVER,POTMH,RED ROCK,,RED,-76.592423,38.125307,,129.71,524899,177,POTOMAC RIVER SOUTH OF A LINE BETWEEN PINEY POINT AND RAGGED POINT,,,,POTOMAC RIVER SOUTHSHORE
MPRSB0,MD,SM,MIDDLE POTOMAC RIVER,POTMH,SHEEPSHEAD BAY,,,-76.763281,38.213648,,458.72,1856359,277,POTOMAC RIVER SOUTH OF COBB ISLAND TO AREA 177,,,,POTOMAC RIVER NORTHSHORE
MPRST0,MD,SM,MIDDLE POTOMAC RIVER,POTMH,STONEY,,COLES POINT,-76.639155,38.154182,,15.37,62195,277,POTOMAC RIVER SOUTH OF COBB ISLAND TO AREA 177,,,,POTOMAC RIVER SOUTHSHORE
MPRTT0,MD,SM,MIDDLE POTOMAC RIVER,POTMH,TALL TIMBERS,,,-76.547443,38.160367,,169.88,687472,177,POTOMAC RIVER SOUTH OF A LINE BETWEEN PINEY POINT AND RAGGED POINT,,,,POTOMAC RIVER NORTHSHORE
MPRWP0,MD,SM,MIDDLE POTOMAC RIVER,POTMH,WRIGHTS POINT,,,-76.688749,38.161052,,30.12,121896,277,POTOMAC RIVER SOUTH OF COBB ISLAND TO AREA 177,,,,POTOMAC RIVER SOUTHSHORE
MPXBI0,MD,CA,MIDDLE PATUXENT RIVER,PAXMH,BROOME ISLAND,,,-76.560858,38.407031,Y,172.25,697085,368,PATUXENT RIVER NORTH OF BROOMES ISLAND,,Yes,Yes,PATUXENT RIVER
MPXCC1,MD,SM,MIDDLE PATUXENT RIVER,PAXMH,COLE CREEK ADD 1,ADDITION 1,,-76.579545,38.404846,,274.49,1110823,368,PATUXENT RIVER NORTH OF BROOMES ISLAND,,,,PATUXENT RIVER
MPXCP0,MD,SM,MIDDLE PATUXENT RIVER,PAXMH,CAPTAIN POINT,,,-76.534998,38.384964,Y,9.42,38117,268,PATUXENT RIVER SOUTH OF BROOMES ISLAND AND NORTH OF AREA 168,,,,PATUXENT RIVER
MPXCP1,MD,SM,MIDDLE PATUXENT RIVER,PAXMH,CAPTAIN POINT ADD 1,ADDITION 1,,-76.527961,38.381973,,165.28,668845,268,PATUXENT RIVER SOUTH OF BROOMES ISLAND AND NORTH OF AREA 168,,,,PATUXENT RIVER
MPXGA0,MD,SM,MIDDLE PATUXENT RIVER,PAXMH,GATTON,,GARDEN BAR,-76.55845,38.393518,Y,157.19,636133,368,PATUXENT RIVER NORTH OF BROOMES ISLAND,,,,PATUXENT RIVER
MPXGA1,MD,SM,MIDDLE PATUXENT RIVER,PAXMH,GATTON ADD 1,ADDITION 1,,-76.543561,38.387888,,117.07,473780,268,PATUXENT RIVER SOUTH OF BROOMES ISLAND AND NORTH OF AREA 168,,,,PATUXENT RIVER
MPXGA2,MD,SM,MIDDLE PATUXENT RIVER,PAXMH,GATTON ADD 2,ADDITION 2,,-76.55855,38.38988,,133.2,539031,368,PATUXENT RIVER NORTH OF BROOMES ISLAND,,,,PATUXENT RIVER
MPXHP0,MD,SM,MIDDLE PATUXENT RIVER,PAXMH,HALF PONE,,TUCKERS,-76.510247,38.366124,Y,50.84,205726,168,PATUXENT RIVER SOUTH OF ST. LEONARD CREEK,,,,PATUXENT RIVER
MPXIC0,MD,CA,MIDDLE PATUXENT RIVER,PAXMH,ISLAND CREEK,,"LONG MARSH,LOWER BAR",-76.545259,38.403439,Y,31.92,129183,368,PATUXENT RIVER NORTH OF BROOMES ISLAND,,,,PATUXENT RIVER
MPXJB0,MD,CA,MIDDLE PATUXENT RIVER,PAXMH,JACKS BAY,,,-76.589861,38.421022,Y,335.14,1356283,368,PATUXENT RIVER NORTH OF BROOMES ISLAND,,,,PATUXENT RIVER
MPXJB1,MD,CA,MIDDLE PATUXENT RIVER,PAXMH,JACKS BAY ADD 1,ADDITION 1,,-76.601174,38.428095,,38.95,157635,368,PATUXENT RIVER NORTH OF BROOMES ISLAND,,,,PATUXENT RIVER
MPXLF0,MD,SM,MIDDLE PATUXENT RIVER,PAXMH,LOWER FORREST,,LOWER FOREST,-76.592728,38.408106,Y,20.14,81485,368,PATUXENT RIVER NORTH OF BROOMES ISLAND,,,,PATUXENT RIVER
MPXLF1,MD,SM,MIDDLE PATUXENT RIVER,PAXMH,LOWER FORREST ADD 1,ADDITION 1,,-76.59479,38.415181,,202,817457,368,PATUXENT RIVER NORTH OF BROOMES ISLAND,,,,PATUXENT RIVER
MPXME0,MD,CA,MIDDLE PATUXENT RIVER,PAXMH,MEARS,,,-76.502312,38.376047,Y,309.8,1253730,168,PATUXENT RIVER SOUTH OF ST. LEONARD CREEK,,,,PATUXENT RIVER
MPXNE0,MD,SM,MIDDLE PATUXENT RIVER,PAXMH,NEALE,,,-76.521258,38.376644,Y,214.5,868062,268,PATUXENT RIVER SOUTH OF BROOMES ISLAND AND NORTH OF AREA 168,,,,PATUXENT RIVER
MPXNE1,MD,SM,MIDDLE PATUXENT RIVER,PAXMH,NEAL ADD 1,ADDITION 1,,-76.514097,38.369687,,96.07,388777,168,PATUXENT RIVER SOUTH OF ST. LEONARD CREEK,,,,PATUXENT RIVER
MPXPE0,MD,CA,MIDDLE PATUXENT RIVER,PAXMH,PETERSON,,JACK GORE,-76.521888,38.392466,Y,511.06,2068169,268,PATUXENT RIVER SOUTH OF BROOMES ISLAND AND NORTH OF AREA 168,,,,PATUXENT RIVER
MPXPW0,MD,CA,MIDDLE PATUXENT RIVER,PAXMH,PARKERS WHARF,,PARKERS,-76.573523,38.41195,Y,189.38,766404,368,PATUXENT RIVER NORTH OF BROOMES ISLAND,,,,PATUXENT RIVER
MPXPW1,MD,CA,MIDDLE PATUXENT RIVER,PAXMH,PARKERS WHARF ADD 1,ADDITION 1,,-76.572444,38.415934,,146.14,591397,368,PATUXENT RIVER NORTH OF BROOMES ISLAND,,,,PATUXENT RIVER
MPXUF0,MD,SM,MIDDLE PATUXENT RIVER,PAXMH,UPPER FORREST,,,-76.602251,38.416709,Y,39.5,159838,368,PATUXENT RIVER NORTH OF BROOMES ISLAND,,,,PATUXENT RIVER
MPXUF1,MD,SM,MIDDLE PATUXENT RIVER,PAXMH,UPPER FORREST ADD 1,ADDITION 1,,-76.607044,38.420061,,149.89,606588,368,PATUXENT RIVER NORTH OF BROOMES ISLAND,,,,PATUXENT RIVER
MTSBB0,MD,SO,MIDDLE TANGIER SOUND,TANMH,BUYBACK SITE - SOMERSET,,,-76.175167,38.116833,,,,129,CHESAPEAKE BAY SOUTH OF COVE POINT AND EAST OF SHIP CHANNEL,,,,TANGIER SOUND
MTSBC0,MD,SO,MIDDLE TANGIER SOUND,TANMH,BACK COVE,,,-75.993699,38.037402,,449.54,1819241,192,TANGIER SOUND SOUTH OF WENONA,,Yes,,TANGIER SOUND
MTSBH0,MD,SO,MIDDLE TANGIER SOUND,TANMH,BOGGS HILL,,TURTLE EGG ISLAND,-75.989296,38.120058,Y,115.4,466987,192,TANGIER SOUND SOUTH OF WENONA,,,,TANGIER SOUND
MTSCH0,MD,SO,MIDDLE TANGIER SOUND,TANMH,COD HABOR,,,-75.974,37.810667,,,,192,TANGIER SOUND SOUTH OF WENONA,,,,TANGIER SOUND
MTSCS0,MD,SO,MIDDLE TANGIER SOUND,TANMH,CHAIN SHOAL,,,-75.966526,38.114423,Y,673.4,2725150,192,TANGIER SOUND SOUTH OF WENONA,,,,TANGIER SOUND
MTSDI0,MD,SO,MIDDLE TANGIER SOUND,TANMH,DEAL ISLAND,,,-75.961865,38.137867,,256.42,1037694,292,TANGIER SOUND NORTH OF WENONA,,,,TANGIER SOUND
MTSFC0,MD,SO,MIDDLE TANGIER SOUND,TANMH,FLAT CAP,,,-75.884418,38.033321,,653.16,2643227,192,TANGIER SOUND SOUTH OF WENONA,,,,TANGIER SOUND
MTSFP0,MD,SO,MIDDLE TANGIER SOUND,TANMH,FISHING POINT,,,-76.002863,38.032623,,772.13,3124704,192,TANGIER SOUND SOUTH OF WENONA,,,,TANGIER SOUND
MTSGY0,MD,SO,MIDDLE TANGIER SOUND,TANMH,GRAVE YARD,,,-75.978474,38.086438,,160.7,650328,192,TANGIER SOUND SOUTH OF WENONA,,,,TANGIER SOUND
MTSHA0,MD,SO,MIDDLE TANGIER SOUND,TANMH,HARRIS,,,-75.892009,38.050234,Y,529.48,2142748,192,TANGIER SOUND SOUTH OF WENONA,,,,TANGIER SOUND
MTSHA1,MD,SO,MIDDLE TANGIER SOUND,BIGMH,HARRIS ADD 1,ADDITION 1,,-75.865523,38.054354,,763.75,3090787,005,BIG ANNEMESSEX RIVER,,,,TANGIER SOUND
MTSHR0,MD,SO,MIDDLE TANGIER SOUND,TANMH,HUDDLE ROCK,,TURTLE EGG ISLAND,-75.990263,38.111947,Y,209.95,849643,192,TANGIER SOUND SOUTH OF WENONA,,,,TANGIER SOUND
MTSHZ0,MD,SO,MIDDLE TANGIER SOUND,TANMH,HAZARDS,,,-75.88061,38.064309,,396.97,1606477,057,MANOKIN RIVER,,,,TANGIER SOUND
MTSLR0,MD,SO,MIDDLE TANGIER SOUND,TANMH,LONG ROCK,,"MUSSEL HOLE,GREAT ISLAND",-75.987943,38.096811,Y,229.07,927033,192,TANGIER SOUND SOUTH OF WENONA,,,,TANGIER SOUND
MTSMH0,MD,SO,MIDDLE TANGIER SOUND,TANMH,MUSSEL HOLE,,LONG ROCK,-75.989002,38.071033,Y,1878.48,7601932,192,TANGIER SOUND SOUTH OF WENONA,,,,TANGIER SOUND
MTSMH1,MD,SO,MIDDLE TANGIER SOUND,TANMH,MUSSEL HOLE ADD 1,ADDITION 1,,-75.976761,38.064999,,472.83,1913472,192,TANGIER SOUND SOUTH OF WENONA,,,,TANGIER SOUND
MTSPA0,MD,SO,MIDDLE TANGIER SOUND,TANMH,PINEY ISLAND EAST ADDITION,ADDITION,,-75.900584,38.075332,,371.28,1502504,057,MANOKIN RIVER,,,,TANGIER SOUND
MTSPC0,MD,SO,MIDDLE TANGIER SOUND,TANMH,PUNGERS CREEK,,,-76.011282,38.12064,,990.34,4007748,192,TANGIER SOUND SOUTH OF WENONA,,,,TANGIER SOUND
MTSPE0,MD,SO,MIDDLE TANGIER SOUND,TANMH,PINEY ISLAND EAST,,FLAT ROCK,-75.898896,38.061757,Y,948.49,3838404,192,TANGIER SOUND SOUTH OF WENONA,,Yes,Yes,TANGIER SOUND
MTSPE1,MD,SO,MIDDLE TANGIER SOUND,TANMH,PINEY ISLAND EAST ADD 1,ADDITION 1,,-75.913526,38.049258,,492.64,1993636,192,TANGIER SOUND SOUTH OF WENONA,,,,TANGIER SOUND
MTSPW0,MD,SO,MIDDLE TANGIER SOUND,TANMH,PINEY ISLAND WEST,,PINEY ISLAND,-75.946622,38.073375,Y,1897.17,7677576,192,TANGIER SOUND SOUTH OF WENONA,,,,TANGIER SOUND
MTSPW1,MD,SO,MIDDLE TANGIER SOUND,TANMH,PINEY ISLAND WEST ADD 1,ADDITION 1,,-75.923441,38.059108,,1326.16,5366776,192,TANGIER SOUND SOUTH OF WENONA,,,,TANGIER SOUND
MTSSM0,MD,SO,MIDDLE TANGIER SOUND,TANMH,SOUTH MARSH,,,-76.002876,38.074637,,1138.7,4608145,192,TANGIER SOUND SOUTH OF WENONA,,,,TANGIER SOUND
MTSTE0,MD,SO,MIDDLE TANGIER SOUND,TANMH,TURTLE EGG ISLAND,,,-75.99594,38.121106,Y,1586.05,6418520,192,TANGIER SOUND SOUTH OF WENONA,,,Yes,TANGIER SOUND
MTSTI0,MD,SO,MIDDLE TANGIER SOUND,TANMH,TERRAPIN SANDS INNER,,,-75.971027,38.023318,,304.8,1233482,192,TANGIER SOUND SOUTH OF WENONA,,,,TANGIER SOUND
MTSTS0,MD,SO,MIDDLE TANGIER SOUND,TANMH,TERRAPIN SANDS,,,-75.972915,38.014544,,1060.82,4292969,192,TANGIER SOUND SOUTH OF WENONA,,,,TANGIER SOUND
MTSTS1,MD,SO,MIDDLE TANGIER SOUND,TANMH,TERRAPIN SANDS ADD 1,ADDITION 1,,-75.949877,38.032806,,580.23,2348090,192,TANGIER SOUND SOUTH OF WENONA,,,,TANGIER SOUND
MTSWI0,MD,SO,MIDDLE TANGIER SOUND,TANMH,WINONA,,,-75.953602,38.124513,,209.62,848301,057,MANOKIN RIVER,,,,TANGIER SOUND
NWRBE0,MD,DO,NANTICOKE AND WICOMICO RIVERS,TANMH,BERTH HILL,,,-75.943333,38.223869,,130.11,526536,292,TANGIER SOUND NORTH OF WENONA,,,,NANTICOKE RIVER
NWRBH0,MD,SO,NANTICOKE AND WICOMICO RIVERS,TANMH,BIG HILL,,A HILL ROCK,-75.944543,38.20775,Y,13.32,53915,292,TANGIER SOUND NORTH OF WENONA,,,,WICOMICO RIVER EAST
NWRBS0,MD,DO,NANTICOKE AND WICOMICO RIVERS,NANMH,BEAN SHOAL,,,-75.932361,38.293903,Y,9.14,36982,062,NANTICOKE RIVER,,,,NANTICOKE RIVER
NWRBU0,MD,SO,NANTICOKE AND WICOMICO RIVERS,WICMH,BUOY,,BUOY HILL,-75.875072,38.211196,Y,46.58,188505,098,MONIE BAY,,,,WICOMICO RIVER EAST
NWRCS0,MD,WI,NANTICOKE AND WICOMICO RIVERS,NANMH,CEDAR SHOAL,,,-75.906158,38.305214,Y,38.11,154229,062,NANTICOKE RIVER,,,,NANTICOKE RIVER
NWRCT0,MD,WI,NANTICOKE AND WICOMICO RIVERS,NANMH,CHERRY TREE,,,-75.910895,38.302946,Y,8.18,33090,062,NANTICOKE RIVER,,,,NANTICOKE RIVER
NWREV0,MD,SO,NANTICOKE AND WICOMICO RIVERS,TANMH,EVANS,,"CRAB CREEK,EVANS SHOAL,WHITE SHOAL",-75.899355,38.20926,Y,327.18,1324047,096,WICOMICO RIVER (WICOMICO COUNTY),,,Yes,WICOMICO RIVER EAST
NWRFP0,MD,DO,NANTICOKE AND WICOMICO RIVERS,TANMH,FROG POINT,,,-75.952861,38.227147,Y,70.21,284129,292,TANGIER SOUND NORTH OF WENONA,,,,NANTICOKE RIVER
NWRFP1,MD,DO,NANTICOKE AND WICOMICO RIVERS,TANMH,FROG POINT ADD 1,ADDITION 1,,-75.96348,38.222614,,1214.04,4913029,292,TANGIER SOUND NORTH OF WENONA,,,,NANTICOKE RIVER
NWRGS0,MD,WI,NANTICOKE AND WICOMICO RIVERS,WICMH,GREAT SHOAL,,,-75.886145,38.217745,Y,435.05,1760590,096,WICOMICO RIVER (WICOMICO COUNTY),,,,WICOMICO RIVER EAST
NWRHH0,MD,DO,NANTICOKE AND WICOMICO RIVERS,NANMH,HILLS AND HOLES,,HILL AND CHANNEL,-75.931389,38.258314,Y,9.27,37498,062,NANTICOKE RIVER,,,,NANTICOKE RIVER
NWRHN0,MD,WI,NANTICOKE AND WICOMICO RIVERS,NANMH,HICKORY NUT,,JACKS CABIN,-75.899715,38.311169,Y,16.45,66583,062,NANTICOKE RIVER,,,,NANTICOKE RIVER
NWRHO0,MD,SO,NANTICOKE AND WICOMICO RIVERS,WICMH,HOLLAND,,,-75.851355,38.244175,Y,4.99,20180,096,WICOMICO RIVER (WICOMICO COUNTY),,,,WICOMICO RIVER EAST
NWRHP0,MD,SO,NANTICOKE AND WICOMICO RIVERS,TANMH,HALLS POINT,,BAR,-75.944171,38.197104,Y,648.23,2623290,292,TANGIER SOUND NORTH OF WENONA,,,,WICOMICO RIVER EAST
NWRHS0,MD,WI,NANTICOKE AND WICOMICO RIVERS,NANMH,HILL SHOALS,,WILSON SHOAL,-75.917805,38.298277,,47.24,191168,062,NANTICOKE RIVER,,,,NANTICOKE RIVER
NWRIS0,MD,WI,NANTICOKE AND WICOMICO RIVERS,WICMH,INGRAM SHOAL,,,-75.873732,38.229982,Y,20.05,81125,096,WICOMICO RIVER (WICOMICO COUNTY),,,,WICOMICO RIVER EAST
NWRLG0,MD,DO,NANTICOKE AND WICOMICO RIVERS,NANMH,LOWER GREENS COVE,,,-75.908625,38.335618,,50.06,202602,062,NANTICOKE RIVER,,,,NANTICOKE RIVER
NWRLN0,MD,DO,NANTICOKE AND WICOMICO RIVERS,NANMH,LOWER NEWFOUNDLAND,,,-75.911853,38.320692,Y,5.78,23390,062,NANTICOKE RIVER,,,,NANTICOKE RIVER
